{"kit_food_area":[{"id" : "r731500","name" : "喫茶 時 toki ","name_kana" : "キッサトキ","latitude" : 36.530967,"longitude" : 136.627867,"address" : "〒921-8163 石川県金沢市横川1-180","tel" : "050-3468-9629 ","opentime" : " モーニング：7:30～11:30、ランチ：11:30～14:00、ティー：14:00～18:00、バー：18:00～22:00","holiday" : "毎週日曜日 祝日<BR>年末年始（2017年12月29日～2018年1月4日）","search_time" : ["2&3&4&5&6&7,07-30,22-00" ],"search_holiday" : { "days" :  "12-29,12-30,12-31,01-01,01-02,01-03,01-04" , "month" :  "{}" },"access_line" : "北陸鉄道石川線","access_station" : "野々市駅","access_walk" : 6,"budget" : 2000,"category_names" : ["カフェ", "バー"]},{"id" : "5159669","name" : "食事処ジパング ","name_kana" : "ショクジドコロジパング","latitude" : 36.530411,"longitude" : 136.628283,"address" : "〒921-8811 石川県野々市市高橋町6-8 ","tel" : "076-248-7277 ","opentime" : "月～木 居酒屋タイム：18:00～翌01:00<BR>金・土 居酒屋タイム：18:00～翌02:00","holiday" : "{}","search_time" : ["2&3&4&5,18-00,25-00" , "6&7,18-00,26-00" ],"search_holiday" : { "days" :  "{}" , "month" :  "{}" },"access_line" : "北陸鉄道石川線","access_station" : "野々市工大前駅","access_walk" : 6,"budget" : 0,"category_names" : ["居酒屋"]},{"id" : "7501028","name" : "CafeY’shome ","name_kana" : "カフェワイズホーム","latitude" : 36.529794,"longitude" : 136.629728,"address" : "〒921-8811 石川県野々市市高橋町8-1 ","tel" : "076-248-6548 ","opentime" : " 07:30～18:30","holiday" : "毎週木曜日","search_time" : ["1&2&3&4&6&7,07-30,18-30"],"search_holiday" : { "days" :  "{}", "month" :  "{}" },"access_line" : "北陸鉄道石川線","access_station" : "野々市工大前駅","access_walk" : 7,"budget" : 0,"category_names" : ["カフェ"]},{"id" : "5751653","name" : "豚菜やとんくん ","name_kana" : "トンサイヤトンクン","latitude" : 36.529308,"longitude" : 136.627650,"address" : "〒921-8811 石川県野々市市高橋町6-28 ","tel" : "076-294-4322 ","opentime" : "月～土 居酒屋タイム：18:00～翌02:00","holiday" : "毎週日曜日 第3月曜日","search_time" : ["3&4&5&6&7,18-00,26-00" ],"search_holiday" : { "days" :  "{}" , "month" :  "3,2" },"access_line" : "北陸鉄道石川線","access_station" : "野々市工大前駅","access_walk" : 3,"budget" : 0,"category_names" : ["居酒屋"]},{"id" : "r627500","name" : "炭焼市場 たい笑 ","name_kana" : "スミヤキイチバタイショウ","latitude" : 36.529317,"longitude" : 136.627281,"address" : "〒921-8811 石川県野々市市高橋町5-28","tel" : "050-3462-1832 ","opentime" : "月～土 夜の部：18:00～翌1:00(L.O.24:30)","holiday" : "毎週日曜日","search_time" : ["2&3&4&5&6&7,18-00,25-00" ],"search_holiday" : { "days" :  "{}" , "month" :  "{}" },"access_line" : "北陸鉄道石川線","access_station" : "野々市工大前駅","access_walk" : 4,"budget" : 3000,"category_names" : ["焼き鳥", "カクテル"]},{"id" : "5859194","name" : "アーバン プラネット ","name_kana" : "アーバンプラネット","latitude" : 36.529317,"longitude" : 136.627256,"address" : "〒921-8811 石川県野々市市高橋町5-28 ","tel" : "076-246-0077 ","opentime" : "{}","holiday" : "{}","search_time" : ["{}" ],"search_holiday" : { "days" :  "{}" , "month" :  "{}" },"access_line" : "北陸鉄道石川線","access_station" : "野々市工大前駅","access_walk" : 2,"budget" : 0,"category_names" : ["喫茶店・軽食"]},{"id" : "5256570","name" : "かあさんの家 ","name_kana" : "カアサンノイエ","latitude" : 36.529317,"longitude" : 136.627256,"address" : "〒921-8811 石川県野々市市高橋町5-28 ","tel" : "076-294-0164 ","opentime" : "{}","holiday" : "{}","search_time" : ["{}" ],"search_holiday" : { "days" :  "{}" , "month" :  "{}" },"access_line" : "北陸鉄道石川線","access_station" : "野々市工大前駅","access_walk" : 3,"budget" : 0,"category_names" : ["定食・食事処"]},{"id" : "r821300","name" : "焼肉 ホルモン やすけ ","name_kana" : "ヤキニクホルモンヤスケ","latitude" : 36.529089,"longitude" : 136.628022,"address" : "〒921-8811 石川県野々市市高橋町14-43","tel" : "050-3374-2601 ","opentime" : "月～土 ランチ：11:00～14:00(L.O.14:00)<BR>月～土 ディナー：17:00～翌1:00(L.O.24:30)","holiday" : "毎週日曜日","search_time" : ["2&3&4&5&6&7,11-00,14-00", "2&3&4&5&6&7,17-00,25-00" ],"search_holiday" : { "days" :  "{}" , "month" :  "{}" },"access_line" : "北陸鉄道石川線","access_station" : "野々市工大前駅","access_walk" : 4,"budget" : 2000,"category_names" : ["焼肉", "ホルモン"]},{"id" : "5502419","name" : "ラーメン 一鶴 ","name_kana" : "ラーメンイッカク","latitude" : 36.529139,"longitude" : 136.627658,"address" : "〒921-8811 石川県野々市市高橋町14-43 ","tel" : "076-294-4129 ","opentime" : "月・火・木～日 ランチ：11:30～14:00<BR>月・火・木～日 ディナー：17:30～22:00","holiday" : "毎週水曜日<BR>※年末年始","search_time" : ["1&2&3&5&6&7,11-30,14-00", "1&2&3&5&6&7,17-30,22-00" ],"search_holiday" : { "days" :  "{}" , "month" :  "{}" },"access_line" : "北陸鉄道石川線","access_station" : "野々市工大前駅","access_walk" : 3,"budget" : 800,"category_names" : ["ラーメン・麺料理 その他"]},{"id" : "7259264","name" : "大衆酒場 Sembello ","name_kana" : "タイシュウサカバセンベロ","latitude" : 36.529081,"longitude" : 136.627861,"address" : "〒921-8811 石川県野々市市高橋町14-43 グリ-ンハイツ2","tel" : "076-294-7225 ","opentime" : "月～土 居酒屋タイム：17:00～翌01:00(L.O.24:00)","holiday" : "毎週日曜日 祝日<BR>※連休の場合最終日のみ休み","search_time" : ["2&3&4&5&6&7,17-00,25-00" ],"search_holiday" : { "days" :  "{}" , "month" :  "0,japanese_holiday" },"access_line" : "北陸鉄道石川線","access_station" : "野々市工大前駅","access_walk" : 4,"budget" : 0,"category_names" : ["居酒屋"]},{"id" : "7434179","name" : "串焼きバルHIBI ","name_kana" : "クシヤキバルヒビ","latitude" : 36.529078,"longitude" : 136.627492,"address" : "〒921-8811 石川県野々市市高橋町15-11 ","tel" : "076-246-8818 ","opentime" : "{}","holiday" : "{}","search_time" : ["{}" ],"search_holiday" : { "days" :  "{}" , "month" :  "{}" },"access_line" : "北陸鉄道石川線","access_station" : "野々市工大前駅","access_walk" : 3,"budget" : 0,"category_names" : ["焼き鳥"]},{"id" : "7336183","name" : "魚心 夢太郎 ","name_kana" : "ギョシンユメタロウ","latitude" : 36.532839,"longitude" : 136.632431,"address" : "〒921-8164 石川県金沢市久安2-430 ","tel" : "076-280-3988 ","opentime" : "{}","holiday" : "{}","search_time" : ["{}" ],"search_holiday" : { "days" :  "{}" , "month" :  "{}" },"access_line" : "ＪＲ北陸本線","access_station" : "西金沢駅","access_walk" : 11,"budget" : 0,"category_names" : ["居酒屋"]},{"id" : "5311723","name" : "カレーのチャンピオン 野々市本店 ","name_kana" : "カレーノチャンピオンノノシホンテン","latitude" : 36.527225,"longitude" : 136.627625,"address" : "〒921-8811 石川県野々市市高橋町20-17 ","tel" : "076-248-1497 ","opentime" : " 11:00～24:00","holiday" : "年中無休<BR>※夏季、年末年始を除く","search_time" : ["1&2&3&4&5&6&7,11-00,24-00" ],"search_holiday" : { "days" :  "{}" , "month" :  "{}" },"access_line" : "北陸鉄道石川線","access_station" : "野々市工大前駅","access_walk" : 6,"budget" : 0,"category_names" : ["カレーライス"]},{"id" : "5311724","name" : "カレーハウス ジャン ","name_kana" : "カレーハウスジャン","latitude" : 36.527272,"longitude" : 136.627064,"address" : "〒921-8811 石川県野々市市高橋町19-14 ","tel" : "076-294-3999 ","opentime" : "{}","holiday" : "{}","search_time" : ["{}" ],"search_holiday" : { "days" :  "{}" , "month" :  "{}" },"access_line" : "北陸鉄道石川線","access_station" : "野々市工大前駅","access_walk" : 5,"budget" : 0,"category_names" : ["カレーライス"]},{"id" : "r627400","name" : "ぱちぱち ","name_kana" : "パチパチ","latitude" : 36.527069,"longitude" : 136.628325,"address" : "〒921-8811 石川県野々市市高橋町20-5","tel" : "050-3463-4651 ","opentime" : " ディナー：18:00～翌1:00(L.O.24:30)","holiday" : "不定休日あり","search_time" : ["{}" ],"search_holiday" : { "days" :  "{}" , "month" :  "{}" },"access_line" : "北陸鉄道石川線","access_station" : "野々市工大前駅","access_walk" : 10,"budget" : 2500,"category_names" : ["炭火焼き・炉端焼き", "居酒屋"]},{"id" : "7245245","name" : "ゼロカフェ 金沢工大前店 ","name_kana" : "ゼロカフエカナザワコウダイマエテン","latitude" : 36.527069,"longitude" : 136.628300,"address" : "〒921-8811 石川県野々市市高橋町20-5 田村レジデンス1F","tel" : "076-248-7510 ","opentime" : "月～土 11:00～21:00(L.O.20:30)","holiday" : "毎週日曜日 祝日<BR>※大型連休","search_time" : ["{}" ],"search_holiday" : { "days" :  "{}" , "month" :  "{}" },"access_line" : "北陸鉄道石川線","access_station" : "野々市工大前駅","access_walk" : 7,"budget" : 0,"category_names" : ["カフェ"]},{"id" : "7286625","name" : "ヒゲ張魯肉飯 【ヒゲチョウルウロウハン】 ","name_kana" : "ヒゲチョウルウロウハン","latitude" : 36.526947,"longitude" : 136.628450,"address" : "〒921-8811 石川県野々市市高橋町20-5 ","tel" : "076-246-4611 ","opentime" : " 11:00～22:00(L.O.21:30)","holiday" : "毎週水曜日","search_time" : ["1&2&3&5&6&7,11-00,22-00" ],"search_holiday" : { "days" :  "{}" , "month" :  "{}" },"access_line" : "北陸鉄道石川線","access_station" : "野々市工大前駅","access_walk" : 8,"budget" : 1000,"category_names" : ["台湾料理"]},{"id" : "6720801","name" : "厨彩ユメジ つばき店 ","name_kana" : "チュウサイユメジツバキテン","latitude" : 36.527042,"longitude" : 136.626692,"address" : "〒921-8812 石川県野々市市扇が丘3-3 ","tel" : "076-248-0085 ","opentime" : " 18:00～翌01:00(L.O.24:30)","holiday" : "{}","search_time" : ["1&2&3&4&5&6&7,18-00,25-00" ],"search_holiday" : { "days" :  "{}" , "month" :  "{}" },"access_line" : "北陸鉄道石川線","access_station" : "野々市工大前駅","access_walk" : 5,"budget" : 0,"category_names" : ["居酒屋"]},{"id" : "5159660","name" : "げん乃 ","name_kana" : "ゲンノ","latitude" : 36.532342,"longitude" : 136.623261,"address" : "〒921-8815 石川県野々市市本町1-23-9 ","tel" : "076-248-0245 ","opentime" : "{}","holiday" : "{}","search_time" : ["{}" ],"search_holiday" : { "days" :  "{}" , "month" :  "{}" },"access_line" : "北陸鉄道石川線","access_station" : "野々市（北陸鉄道）駅","access_walk" : 1,"budget" : 0,"category_names" : ["割烹"]},{"id" : "r630203","name" : "からあげ 鶏間 ","name_kana" : "カラアゲトリマ","latitude" : 36.526631,"longitude" : 136.628417,"address" : "〒921-8812 石川県野々市市扇が丘161-2","tel" : "050-3468-2562 ","opentime" : "火～木 11:30～24:00(L.O.23:30)<BR>金 11:30～翌2:00(L.O.1:00)<BR>土 17:00～翌2:00(L.O.1:00)<BR>日 17:00～24:00(L.O.23:30)","holiday" : "毎週月曜日","search_time" : ["{}" ],"search_holiday" : { "days" :  "{}" , "month" :  "{}" },"access_line" : "北陸鉄道石川線","access_station" : "野々市工大前駅","access_walk" : 8,"budget" : 1500,"category_names" : ["鶏料理(鳥料理)", "鉄板焼き"]},{"id" : "6294349","name" : "gallery＆kitchen らとぅー ","name_kana" : "ギャラリーアンドキッチンラトゥー","latitude" : 36.533056,"longitude" : 136.623483,"address" : "〒921-8815 石川県野々市市本町1丁目19-5 ","tel" : "076-272-8654 ","opentime" : "{}","holiday" : "{}","search_time" : ["{}" ],"search_holiday" : { "days" :  "{}" , "month" :  "{}" },"access_line" : "{}","access_station" : "{}","access_walk" : {},"budget" : 1200,"category_names" : ["オーガニック料理"]},{"id" : "5219518","name" : "炭火焼肉 2代目 風神 ","name_kana" : "スミビヤキニクニダイメフウジン","latitude" : 36.533267,"longitude" : 136.633308,"address" : "〒921-8164 石川県金沢市久安2-451 ","tel" : "076-280-4129 ","opentime" : "月～水・金～日 17:00～翌1:00","holiday" : "毎週木曜日","search_time" : ["1&2&3&4&6&7,17-00,25-00" ],"search_holiday" : { "days" :  "{}" , "month" :  "{}" },"access_line" : "北鉄鶴来線","access_station" : "金沢工業大学駅","access_walk" : 15,"budget" : 2300,"category_names" : ["焼肉", "ホルモン"]},{"id" : "5844734","name" : "トラットリア＆バール カンパーニュ 久安店 ","name_kana" : "トラットリアアンドバールカンパーニュヒサヤステン","latitude" : 36.533197,"longitude" : 136.633364,"address" : "〒921-8164 石川県金沢市久安2-463 クレアールMIKAMI 1F","tel" : "076-247-0373 ","opentime" : "{}","holiday" : "{}","search_time" : ["{}" ],"search_holiday" : { "days" :  "{}" , "month" :  "{}" },"access_line" : "北陸鉄道石川線","access_station" : "押野駅","access_walk" : 14,"budget" : 0,"category_names" : ["イタリアン(イタリア料理)"]},{"id" : "7517632","name" : "いとや ","name_kana" : "イトヤ","latitude" : 36.534819,"longitude" : 136.631936,"address" : "〒921-8163 石川県金沢市横川3-4 ","tel" : "076-245-5769 ","opentime" : "{}","holiday" : "{}","search_time" : ["{}" ],"search_holiday" : { "days" :  "{}" , "month" :  "{}" },"access_line" : "北陸鉄道石川線","access_station" : "押野駅","access_walk" : 11,"budget" : 0,"category_names" : ["焼肉"]},{"id" : "7253928","name" : "串酒場 はるけい屋 ","name_kana" : "クシサカバハルケイヤ","latitude" : 36.535019,"longitude" : 136.631606,"address" : "〒921-8163 石川県金沢市横川3-16 リバース横川1F","tel" : "076-220-7061 ","opentime" : " 17:30～翌1:00(L.O.24:00)","holiday" : "毎週水曜日<BR>※※1月1日、13日","search_time" : ["1&2&3&5&6&7,17-30,25-00" ],"search_holiday" : { "days" :  "01-01,01-13" , "month" :  "{}" },"access_line" : "ＪＲ北陸本線","access_station" : "野々市駅","access_walk" : 10,"budget" : 3000,"category_names" : ["居酒屋", "串焼き"]},{"id" : "r799100","name" : "焼肉厨房 かびや ","name_kana" : "ヤキニクチュウボウカビヤ","latitude" : 36.535169,"longitude" : 136.631306,"address" : "〒921-8163 石川県金沢市横川3-19","tel" : "050-3492-0171 ","opentime" : "火～金 ディナー：18:00～24:00(L.O.23:00)<BR>土・日・祝日 ディナー：17:00～24:00(L.O.23:00)","holiday" : "毎週月曜日","search_time" : ["{}" ],"search_holiday" : { "days" :  "{}" , "month" :  "{}" },"access_line" : "北陸鉄道石川線","access_station" : "押野駅","access_walk" : 11,"budget" : 3000,"category_names" : ["焼肉", "居酒屋"]},{"id" : "7145750","name" : "ラーメン虎 ","name_kana" : "ラーメントラ","latitude" : 36.526547,"longitude" : 136.626542,"address" : "〒921-8812 石川県野々市市扇が丘3-50 ","tel" : "076-248-4649 ","opentime" : "{}","holiday" : "{}","search_time" : ["3&4&5&6,18-00,24-00","1&7,17-00,24-00" ],"search_holiday" : { "days" :  "{}" , "month" :  "{}" },"access_line" : "北陸鉄道石川線","access_station" : "野々市工大前駅","access_walk" : 5,"budget" : 0,"category_names" : ["ラーメン"]},{"id" : "5731057","name" : "コバタルーム ","name_kana" : "コバタルーム","latitude" : 36.535542,"longitude" : 136.630306,"address" : "〒921-8163 石川県金沢市横川3-62 ","tel" : "076-280-9749 ","opentime" : "{}","holiday" : "{}","search_time" : ["{}" ],"search_holiday" : { "days" :  "{}" , "month" :  "{}" },"access_line" : "北陸鉄道石川線","access_station" : "押野駅","access_walk" : 10,"budget" : 0,"category_names" : ["洋食屋"]},{"id" : "7483484","name" : "糖質OFFキッチン ニクータ ","name_kana" : "トウシツオフキッチンニクータ","latitude" : 36.526261,"longitude" : 136.627269,"address" : "〒921-8812 石川県野々市市扇が丘3-18 ","tel" : "076-256-3886 ","opentime" : "{}","holiday" : "{}","search_time" : ["{}" ],"search_holiday" : { "days" :  "{}" , "month" :  "{}" },"access_line" : "北陸鉄道石川線","access_station" : "野々市工大前駅","access_walk" : 6,"budget" : 0,"category_names" : ["洋食屋"]},{"id" : "7245253","name" : "鳥珍や金沢工大前店 ","name_kana" : "チヨウチンヤカナザワコウダイマエテン","latitude" : 36.526261,"longitude" : 136.627269,"address" : "〒921-8812 石川県野々市市扇が丘3-18 ","tel" : "076-294-6789 ","opentime" : "{}","holiday" : "{}","search_time" : ["{}" ],"search_holiday" : { "days" :  "{}" , "month" :  "{}" },"access_line" : "北陸鉄道石川線","access_station" : "野々市工大前駅","access_walk" : 7,"budget" : 0,"category_names" : ["焼き鳥"]},{"id" : "5038699","name" : "ビッグピンク ","name_kana" : "ビッグピンク","latitude" : 36.530119,"longitude" : 136.634533,"address" : "〒921-8164 石川県金沢市久安2-237 ","tel" : "076-245-2200 ","opentime" : "{}","holiday" : "{}","search_time" : ["{}" ],"search_holiday" : { "days" :  "{}" , "month" :  "{}" },"access_line" : "北陸鉄道石川線","access_station" : "野々市工大前駅","access_walk" : 13,"budget" : 0,"category_names" : ["カフェ"]},{"id" : "5422029","name" : "かつや　金沢久安店 ","name_kana" : "カツヤカナザワヒサヤステン","latitude" : 36.529936,"longitude" : 136.634525,"address" : "〒921-8164 石川県金沢市久安2-233 ","tel" : "076-244-4773 ","opentime" : "{}","holiday" : "※無休","search_time" : ["{}" ],"search_holiday" : { "days" :  "{}" , "month" :  "{}" },"access_line" : "北陸鉄道石川線","access_station" : "野々市工大前駅","access_walk" : 12,"budget" : 0,"category_names" : ["とんかつ（トンカツ）"]},{"id" : "7216079","name" : "彩美食 絆 ","name_kana" : "サイビショクキズナ","latitude" : 36.535978,"longitude" : 136.629889,"address" : "〒921-8163 石川県金沢市横川3-153 ","tel" : "076-255-7137 ","opentime" : "{}","holiday" : "{}","search_time" : ["{}" ],"search_holiday" : { "days" :  "{}" , "month" :  "{}" },"access_line" : "北陸鉄道石川線","access_station" : "押野駅","access_walk" : 8,"budget" : 0,"category_names" : ["野菜料理"]},{"id" : "7473565","name" : "2丁目カフェ ","name_kana" : "ニチョウメカフェ","latitude" : 36.527744,"longitude" : 136.623617,"address" : "〒921-8815 石川県野々市市本町2-21-19 ","tel" : "076-294-3225 ","opentime" : "月・水・祝日 10:00～17:00","holiday" : "不定休日あり","search_time" : ["2&3,10-00,17-00" ],"search_holiday" : { "days" :  "{}" , "month" :  "{}" },"access_line" : "北陸鉄道石川線","access_station" : "野々市工大前駅","access_walk" : 3,"budget" : 0,"category_names" : ["カフェ"]},{"id" : "5643666","name" : "チャーシュー亭 工大前店 ","name_kana" : "チャーシューテイコウダイマエテン","latitude" : 36.525897,"longitude" : 136.628619,"address" : "〒921-8812 石川県野々市市扇が丘5-8 ","tel" : "076-294-4810 ","opentime" : "{}","holiday" : "{}","search_time" : ["{}" ],"search_holiday" : { "days" :  "{}" , "month" :  "{}" },"access_line" : "北陸鉄道石川線","access_station" : "野々市工大前駅","access_walk" : 8,"budget" : 0,"category_names" : ["豚肉料理"]},{"id" : "5603533","name" : "豚蔵 ","name_kana" : "トンゾ","latitude" : 36.536158,"longitude" : 136.629506,"address" : "〒921-8163 石川県金沢市横川3-159 ","tel" : "076-280-1052 ","opentime" : "{}","holiday" : "{}","search_time" : ["{}" ],"search_holiday" : { "days" :  "{}" , "month" :  "{}" },"access_line" : "北陸鉄道石川線","access_station" : "押野駅","access_walk" : 8,"budget" : 0,"category_names" : ["ラーメン"]},{"id" : "5039196","name" : "きっちんサイクル ","name_kana" : "キッチンサイクル","latitude" : 36.527347,"longitude" : 136.633006,"address" : "〒921-8811 石川県野々市市高橋町24-3 ","tel" : "076-246-5842 ","opentime" : "{}","holiday" : "{}","search_time" : ["{}" ],"search_holiday" : { "days" :  "{}" , "month" :  "{}" },"access_line" : "北陸鉄道石川線","access_station" : "野々市工大前駅","access_walk" : 13,"budget" : 0,"category_names" : ["定食・食事処"]},{"id" : "6172899","name" : "ナニワ屋 ","name_kana" : "ナニワヤ","latitude" : 36.530806,"longitude" : 136.621928,"address" : "〒921-8815 石川県野々市市本町1-40-26 ","tel" : "076-227-5888 ","opentime" : "月・水～土 18:00～翌1:00(L.O.24:00)<BR>日・祝日 17:00～翌1:00(L.O.24:00)","holiday" : "毎週火曜日","search_time" : ["2&4&5&6&7,18-00,25-00","1,17-00,25-00" ],"search_holiday" : { "days" :  "{}" , "month" :  "{}" },"access_line" : "北陸鉄道石川線","access_station" : "野々市駅","access_walk" : 5,"budget" : 2500,"category_names" : ["居酒屋", "串カツ "]},{"id" : "7262352","name" : "コミュニティトレードal（アル） ","name_kana" : "コミュニティトレードアル","latitude" : 36.529678,"longitude" : 136.622036,"address" : "〒921-8815 石川県野々市市本町2-1-24 ","tel" : "076-246-0617 ","opentime" : " ランチ：11:30～14:30、カフェ：10:00～19:00","holiday" : "毎週月曜日","search_time" : ["1&3&4&5&6&7,10-00,19-00" ],"search_holiday" : { "days" :  "{}" , "month" :  "{}" },"access_line" : "ＪＲ北陸本線","access_station" : "野々市駅","access_walk" : 8,"budget" : 1080,"category_names" : ["カフェ", "喫茶店・軽食"]},{"id" : "6278629","name" : "二代目 つけ蔵 ","name_kana" : "ニダイメツケゾウ","latitude" : 36.536044,"longitude" : 136.630706,"address" : "〒921-8163 石川県金沢市横川4-180 ","tel" : "076-255-7285 ","opentime" : "月～日・祝日・祝前日 昼の部：11:30～14:30(L.O.14:30)<BR>月～日・祝日・祝前日 夜の部：17:30～22:30(L.O.22:30)","holiday" : "不定休日あり","search_time" : ["1&2&3&4&5&6&7,11-30,14-30","1&2&3&4&5&6&7,17-30,22-30" ],"search_holiday" : { "days" :  "{}" , "month" :  "{}" },"access_line" : "北陸鉄道石川線","access_station" : "押野駅","access_walk" : 9,"budget" : 0,"category_names" : ["つけ麺"]},{"id" : "6427046","name" : "雅家 ","name_kana" : "ミヤビヤ","latitude" : 36.535044,"longitude" : 136.624031,"address" : "〒921-8815 石川県野々市市本町1-6-5 野々市DSGアリーナ1F","tel" : "076-246-2465 ","opentime" : "{}","holiday" : "{}","search_time" : ["{}" ],"search_holiday" : { "days" :  "{}" , "month" :  "{}" },"access_line" : "北陸鉄道石川線","access_station" : "野々市（北陸鉄道）駅","access_walk" : 2,"budget" : 0,"category_names" : ["ラーメン"]},{"id" : "5676771","name" : "岩本屋　久安店 ","name_kana" : "イワモトヤヒサヤステン","latitude" : 36.528478,"longitude" : 136.634317,"address" : "〒921-8164 石川県金沢市久安1-466 ","tel" : "076-225-3939 ","opentime" : "月～日 ランチ：11:00～15:00<BR>月～日 ディナー：17:00～24:00","holiday" : "不定休日あり","search_time" : ["1&2&3&4&5&6&7,11-00,15-00","1&2&3&4&5&6&7,17-00,24-00" ],"search_holiday" : { "days" :  "{}" , "month" :  "{}" },"access_line" : "{}","access_station" : "{}","access_walk" : {},"budget" : 900,"category_names" : ["ラーメン・麺料理 その他"]},{"id" : "5459683","name" : "ジョイフル 横川店 ","name_kana" : "ジョイフルヨコガワテン","latitude" : 36.536272,"longitude" : 136.630108,"address" : "〒921-8163 石川県金沢市横川6-1 ","tel" : "076-280-5311 ","opentime" : " 24時間営業","holiday" : "{}","search_time" : ["{}" ],"search_holiday" : { "days" :  "{}" , "month" :  "{}" },"access_line" : "北陸鉄道石川線","access_station" : "押野駅","access_walk" : 8,"budget" : 0,"category_names" : ["ファミリーレストラン"]},{"id" : "7274611","name" : "サーティワンアイスクリーム 金沢久安店 ","name_kana" : "サーティワンアイスクリームカナザワヒサヤステン","latitude" : 36.531450,"longitude" : 136.635211,"address" : "〒921-8164 石川県金沢市久安2-326 ","tel" : "076-244-9440 ","opentime" : "{}","holiday" : "{}","search_time" : ["{}" ],"search_holiday" : { "days" :  "{}" , "month" :  "{}" },"access_line" : "北陸鉄道石川線","access_station" : "野々市工大前駅","access_walk" : 14,"budget" : 0,"category_names" : ["ケーキ屋・スイーツ"]},{"id" : "5289905","name" : "敬蔵 ","name_kana" : "ケイゾウ","latitude" : 36.534103,"longitude" : 136.622656,"address" : "〒921-8815 石川県野々市市本町1-8-28 ","tel" : "076-294-1486 ","opentime" : "月・火・木～日 ランチ：11:30～14:30","holiday" : "毎週水曜日 第3火曜日","search_time" : ["1&2&3&5&6&7,11-30,14-30" ],"search_holiday" : { "days" :  "{}" , "month" :  "3,2" },"access_line" : "{}","access_station" : "{}","access_walk" : {},"budget" : 1200,"category_names" : ["そば"]},{"id" : "5159104","name" : "居酒や 海蔵 ","name_kana" : "イザカヤカイゾウ","latitude" : 36.536514,"longitude" : 136.629933,"address" : "〒921-8163 石川県金沢市横川6-20 ","tel" : "076-247-6685 ","opentime" : "月～土 居酒屋タイム：17:30～23:00(L.O.22:30)","holiday" : "毎週日曜日","search_time" : ["2&3&4&5&6&7,17-30,23-00" ],"search_holiday" : { "days" :  "{}" , "month" :  "{}" },"access_line" : "北陸鉄道石川線","access_station" : "押野駅","access_walk" : 8,"budget" : 0,"category_names" : ["居酒屋"]},{"id" : "5289907","name" : "獅子家 ","name_kana" : "シシヤ","latitude" : 36.536183,"longitude" : 136.625650,"address" : "〒921-8815 石川県野々市市本町1-3-1 ","tel" : "076-246-5367 ","opentime" : "{}","holiday" : "{}","search_time" : ["{}" ],"search_holiday" : { "days" :  "{}" , "month" :  "{}" },"access_line" : "北陸鉄道石川線","access_station" : "押野駅","access_walk" : 4,"budget" : 0,"category_names" : ["うどん"]},{"id" : "r228005","name" : "金澤達系 麺屋達 久安店","name_kana" : "カナザワタツケイメンヤタツ ヒサヤステン","latitude" : 36.531192,"longitude" : 136.635442,"address" : "〒921-8164 石川県金沢市久安2-323","tel" : "050-3461-1279 ","opentime" : " 11:30～14:30、18:00～22:30","holiday" : "不定休日あり<BR>※※年末年始のみ休み","search_time" : ["{}" ],"search_holiday" : { "days" :  "{}" , "month" :  "{}" },"access_line" : "ＪＲ北陸本線","access_station" : "西金沢駅","access_walk" : 12,"budget" : 800,"category_names" : ["ラーメン", "つけ麺"]},{"id" : "6420217","name" : "きんしゃち ","name_kana" : "キンシャチ","latitude" : 36.531339,"longitude" : 136.635514,"address" : "〒921-8164 石川県金沢市久安2-324 ","tel" : "076-280-6630 ","opentime" : "{}","holiday" : "{}","search_time" : ["{}" ],"search_holiday" : { "days" :  "{}" , "month" :  "{}" },"access_line" : "北陸鉄道石川線","access_station" : "野々市工大前駅","access_walk" : 14,"budget" : 0,"category_names" : ["居酒屋"]},{"id" : "7198279","name" : "とんちゃん焼 創 ","name_kana" : "トンチャンヤキソウ","latitude" : 36.536756,"longitude" : 136.628844,"address" : "〒921-8163 石川県金沢市横川3-167 ","tel" : "076-220-6293 ","opentime" : "月・火・木～日・祝前日・祝日 17:00～翌1:00(L.O.24:00)(平日は２４時閉店、２３時３０分ラストオーダーとさせて頂いてます。)","holiday" : "毎週水曜日<BR>※水曜日が祝日の場合は木曜日が休みです。","search_time" : ["{}" ],"search_holiday" : { "days" :  "{}" , "month" :  "{}" },"access_line" : "{}","access_station" : "{}","access_walk" : {},"budget" : 2800,"category_names" : ["焼肉"]},{"id" : "r626788","name" : "８番らーめん 工大前店","name_kana" : "ハチバンラーメン コウダイマエテン","latitude" : 36.526614,"longitude" : 136.632986,"address" : "〒921-8811 石川県野々市市高橋町24-3","tel" : "076-248-5115 ","opentime" : " 11:00～15:00、17:00～22:00(L.O.21:30)(水曜日は20:00まで)","holiday" : "無","search_time" : ["1&2&3&4&5&6&7,11-00,15-00","1&2&3&4&5&6&7,17-00,22-00" ],"search_holiday" : { "days" :  "{}" , "month" :  "{}" },"access_line" : "北陸鉄道石川線","access_station" : "野々市工大前駅","access_walk" : 14,"budget" : 800,"category_names" : ["ラーメン"]},{"id" : "5502436","name" : "らーめんDON ","name_kana" : "ラーメンドン","latitude" : 36.526336,"longitude" : 136.632667,"address" : "〒921-8812 石川県野々市市扇が丘8-46 ","tel" : "076-248-8211 ","opentime" : "{}","holiday" : "{}","search_time" : ["{}" ],"search_holiday" : { "days" :  "{}" , "month" :  "{}" },"access_line" : "{}","access_station" : "{}","access_walk" : {},"budget" : 0,"category_names" : ["ラーメン"]},{"id" : "6389085","name" : "JOHNかりおすとろ ","name_kana" : "ジョンカリオストロ","latitude" : 36.532311,"longitude" : 136.621289,"address" : "〒921-8817 石川県野々市市横宮町8-11 グランディール103号","tel" : "076-248-8484 ","opentime" : "月・水～日・祝日・祝前日 11:30～22:00(L.O.21:30)","holiday" : "毎週火曜日","search_time" : ["1&2&4&5&6&7,11-30,22-00" ],"search_holiday" : { "days" :  "{}" , "month" :  "{}" },"access_line" : "北陸鉄道石川線","access_station" : "野々市（北陸鉄道）駅","access_walk" : 4,"budget" : 0,"category_names" : ["洋食屋"]},{"id" : "7473566","name" : "星とこんぺいとう ","name_kana" : "ホシトコンペイトウ","latitude" : 36.532311,"longitude" : 136.621289,"address" : "〒921-8817 石川県野々市市横宮町8-11 グランディール102号","tel" : "076-205-6531 ","opentime" : "{}","holiday" : "{}","search_time" : ["{}" ],"search_holiday" : { "days" :  "{}" , "month" :  "{}" },"access_line" : "北陸鉄道石川線","access_station" : "野々市（北陸鉄道）駅","access_walk" : 4,"budget" : 0,"category_names" : ["カフェ"]},{"id" : "6752863","name" : "快活CLUB 金沢久安店 ","name_kana" : "カイカツクラブカナザワヒサヤステン","latitude" : 36.531708,"longitude" : 136.635769,"address" : "〒921-8164 石川県金沢市久安3-362 ","tel" : "076-243-0888 ","opentime" : "{}","holiday" : "{}","search_time" : ["{}" ],"search_holiday" : { "days" :  "{}" , "month" :  "{}" },"access_line" : "北陸鉄道石川線","access_station" : "野々市工大前駅","access_walk" : 15,"budget" : 0,"category_names" : ["インターネットカフェ"]},{"id" : "6056679","name" : "魚と台所おばん菜 ひなた ","name_kana" : "サカナトダイドコロオバンザイヒナタ","latitude" : 36.531850,"longitude" : 136.621097,"address" : "〒921-8817 石川県野々市市横宮町8-5 つばき通り百番ビル1F","tel" : "076-246-2525 ","opentime" : "月・火・木～日 居酒屋タイム：17:30～23:00","holiday" : "毎週水曜日","search_time" : ["1&2&3&5&6&7,17-30,23-00" ],"search_holiday" : { "days" :  "{}" , "month" :  "{}" },"access_line" : "北陸鉄道石川線","access_station" : "野々市（北陸鉄道）駅","access_walk" : 5,"budget" : 0,"category_names" : ["居酒屋"]},{"id" : "5655051","name" : "菊姫 ","name_kana" : "キクヒメ","latitude" : 36.531850,"longitude" : 136.621097,"address" : "〒921-8817 石川県野々市市横宮町8-5 ","tel" : "076-248-8402 ","opentime" : "{}","holiday" : "{}","search_time" : ["{}" ],"search_holiday" : { "days" :  "{}" , "month" :  "{}" },"access_line" : "北陸鉄道石川線","access_station" : "野々市（北陸鉄道）駅","access_walk" : 5,"budget" : 0,"category_names" : ["居酒屋"]},{"id" : "6009040","name" : "炭火焼き ホルモン倶楽部 松本商店 ","name_kana" : "スミビヤキホルモンクラブマツモトショウテン","latitude" : 36.536931,"longitude" : 136.627053,"address" : "〒921-8163 石川県金沢市横川3-14 リバーサイドハイツ1F","tel" : "076-241-7711 ","opentime" : "{}","holiday" : "{}","search_time" : ["{}" ],"search_holiday" : { "days" :  "{}" , "month" :  "{}" },"access_line" : "北陸鉄道石川線","access_station" : "押野駅","access_walk" : 7,"budget" : 0,"category_names" : ["ホルモン"]},{"id" : "r613619","name" : "ケンタッキーフライドチキン 金沢工大前店","name_kana" : "ケンタッキーフライドチキン カナザワコウダイマエテン","latitude" : 36.526647,"longitude" : 136.633728,"address" : "〒921-8162 石川県金沢市三馬3-300","tel" : "076-243-7615 ","opentime" : " 10:00～22:00","holiday" : "年中無休","search_time" : ["1&2&3&4&5&6&7,10-00,22-00" ],"search_holiday" : { "days" :  "{}" , "month" :  "{}" },"access_line" : "北陸鉄道石川線","access_station" : "野々市工大前駅","access_walk" : 5,"budget" : 800,"category_names" : ["ファーストフード"]},{"id" : "5731059","name" : "洋風食堂 さつき亭 ","name_kana" : "ヨウフウショクドウサツキテイ","latitude" : 36.537178,"longitude" : 136.628964,"address" : "〒921-8163 石川県金沢市横川6-65 ","tel" : "076-242-5533 ","opentime" : "月・火・木～日 ランチ：11:00～14:30<BR>月・火・木～日 ディナー：18:00～20:30","holiday" : "毎週水曜日<BR>※祝日の場合は営業","search_time" : ["1&2&3&5&6&7,11-00,14-30","1&2&3&5&6&7,18-00,20-30" ],"search_holiday" : { "days" :  "{}" , "month" :  "{}" },"access_line" : "北陸鉄道石川線","access_station" : "押野駅","access_walk" : 7,"budget" : 0,"category_names" : ["定食・食事処"]},{"id" : "6939705","name" : "かえで ","name_kana" : "カエデ","latitude" : 36.532292,"longitude" : 136.620781,"address" : "〒921-8817 石川県野々市市横宮町9-18 ","tel" : "076-248-3292 ","opentime" : "月～日・祝日・祝前日 11:00～22:30(L.O.22:30)","holiday" : "年中無休","search_time" : ["1&2&3&4&5&6&7,11-00,22-30" ],"search_holiday" : { "days" :  "{}" , "month" :  "{}" },"access_line" : "北陸鉄道石川線","access_station" : "野々市（北陸鉄道）駅","access_walk" : 5,"budget" : 0,"category_names" : ["定食・食事処"]},{"id" : "6384434","name" : "まいどおおきに金沢久安食堂 ","name_kana" : "マイドオオキニカナザワヒサヤスショクドウ","latitude" : 36.532136,"longitude" : 136.636167,"address" : "〒921-8164 石川県金沢市久安3-355 ","tel" : "076-280-9255 ","opentime" : "{}","holiday" : "年中無休","search_time" : ["{}" ],"search_holiday" : { "days" :  "{}" , "month" :  "{}" },"access_line" : "北陸鉄道石川線","access_station" : "野々市工大前駅","access_walk" : 16,"budget" : 0,"category_names" : ["郷土料理"]},{"id" : "r181108","name" : "松屋 金沢工大前店","name_kana" : "マツヤ カナザワコウダイマエテン","latitude" : 36.525611,"longitude" : 136.632678,"address" : "〒921-8812 石川県野々市市扇が丘8-8","tel" : "076-294-8680 ","opentime" : " 24時間営業","holiday" : "年中無休","search_time" : ["{}" ],"search_holiday" : { "days" :  "{}" , "month" :  "{}" },"access_line" : "北陸鉄道石川線","access_station" : "野々市工大前駅","access_walk" : 14,"budget" : 500,"category_names" : ["丼物", "定食・食事処"]},{"id" : "7518946","name" : "ごはん処 ことこと家 ","name_kana" : "ゴハンドコロコトコトヤ","latitude" : 36.532886,"longitude" : 136.620800,"address" : "〒921-8817 石川県野々市市横宮町6-3 しあわせの湯 3F","tel" : "076-248-1126 ","opentime" : " 11:30～14:00、18:00～22:00(L.O.21:30)<BR>土・日・祝日 11:30～22:00(L.O.21:30)","holiday" : "第3木曜日<BR>※変更の場合もあり","search_time" : ["{}" ],"search_holiday" : { "days" :  "{}" , "month" :  "{}" },"access_line" : "北陸鉄道石川線","access_station" : "野々市（北陸鉄道）駅","access_walk" : 4,"budget" : 0,"category_names" : ["定食・食事処"]},{"id" : "5477818","name" : "山ちゃん ","name_kana" : "ヤマチャン","latitude" : 36.527294,"longitude" : 136.621847,"address" : "〒921-8815 石川県野々市市本町2-25-8 ","tel" : "076-246-0051 ","opentime" : "{}","holiday" : "{}","search_time" : ["{}" ],"search_holiday" : { "days" :  "{}" , "month" :  "{}" },"access_line" : "北陸鉄道石川線","access_station" : "野々市工大前駅","access_walk" : 5,"budget" : 0,"category_names" : ["焼き鳥"]},{"id" : "7322639","name" : "イエロースター ","name_kana" : "イエロースター","latitude" : 36.534939,"longitude" : 136.621878,"address" : "〒921-8817 石川県野々市市横宮町149-1 ","tel" : "076-259-1093 ","opentime" : "{}","holiday" : "{}","search_time" : ["{}" ],"search_holiday" : { "days" :  "{}" , "month" :  "{}" },"access_line" : "北陸鉄道石川線","access_station" : "押野駅","access_walk" : 8,"budget" : 0,"category_names" : ["カレーライス"]},{"id" : "r696593","name" : "ビッグボーイ 野々市横宮店","name_kana" : "ビッグボーイ ノノイチヨコミヤテン","latitude" : 36.534769,"longitude" : 136.621722,"address" : "〒921-8817 石川県野々市市横宮町103","tel" : "076-248-5631 ","opentime" : " 11:00～翌2:00<BR>月～土 ランチ：11:00～17:00","holiday" : "無","search_time" : ["2&3&4&5&6&7,11-00,26-00" ],"search_holiday" : { "days" :  "{}" , "month" :  "{}" },"access_line" : "ＪＲ北陸本線","access_station" : "野々市駅","access_walk" : 3,"budget" : 1000,"category_names" : ["ハンバーグ", "ステーキ"]},{"id" : "7188311","name" : "Chill Out＆ソフトクリーム畑 野々市店 ","name_kana" : "チルアウトアンドソフトクリームバタケノノイチテン","latitude" : 36.525419,"longitude" : 136.632800,"address" : "〒921-8812 石川県野々市市扇が丘8-15 竹内ビル 1F","tel" : "076-255-7558 ","opentime" : "月～日 昼の部：10:00～19:00","holiday" : "不定休日あり","search_time" : ["{}" ],"search_holiday" : { "days" :  "{}" , "month" :  "{}" },"access_line" : "北陸鉄道石川線","access_station" : "野々市工大前駅","access_walk" : 14,"budget" : 0,"category_names" : ["ケーキ屋・スイーツ"]},{"id" : "6414038","name" : "やきとりの名門 秋吉 金沢工大店","name_kana" : "ヤキトリノメイモンアキヨシ カナザワコウダイテン","latitude" : 36.525419,"longitude" : 136.632822,"address" : "〒921-8812 石川県野々市市扇ヶ丘8-15 竹内ビル1F","tel" : "076-248-9215 ","opentime" : "月～水・金 ディナー：17:30～23:15(L.O.22:45)<BR>土・祝前日 ディナー：17:00～23:15(L.O.22:45)<BR>日・祝日 ディナー：17:00～22:30(L.O.22:00)","holiday" : "毎週木曜日","search_time" : ["{}" ],"search_holiday" : { "days" :  "{}" , "month" :  "{}" },"access_line" : "北陸鉄道石川線","access_station" : "野々市工大前駅","access_walk" : 14,"budget" : 2600,"category_names" : ["焼き鳥", "焼き鳥・肉料理・串料理 その他"]},{"id" : "6403938","name" : "ビリオン珈琲 久安店 ","name_kana" : "ビリオンコーヒーヒサヤステン","latitude" : 36.532783,"longitude" : 136.636472,"address" : "〒921-8164 石川県金沢市久安4-404 ","tel" : "076-244-1752 ","opentime" : " 07:30～24:00","holiday" : "{}","search_time" : ["1&2&3&4&5&6&7,07-30,24-00" ],"search_holiday" : { "days" :  "{}" , "month" :  "{}" },"access_line" : "北陸鉄道石川線","access_station" : "野々市工大前駅","access_walk" : 18,"budget" : 0,"category_names" : ["カフェ"]},{"id" : "6116905","name" : "サンニコラ 本店 ","name_kana" : "サンニコラホンテン","latitude" : 36.524792,"longitude" : 136.631739,"address" : "〒921-8812 石川県野々市市扇が丘10-26 ","tel" : "076-248-6327 ","opentime" : "月・木～日 10:00～19:00<BR>火 10:00～17:00(第3火曜日は定休日)","holiday" : "毎週水曜日 第2火曜日","search_time" : ["1&2&5&6&7,10-00,19-00","5,10-00,17-00" ],"search_holiday" : { "days" :  "{}" , "month" :  "3,3" },"access_line" : "北陸鉄道石川線","access_station" : "野々市工大前駅","access_walk" : 13,"budget" : 0,"category_names" : ["ケーキ屋・スイーツ"]},{"id" : "5219573","name" : "焼肉ジャンジャン ","name_kana" : "ヤキニクジャンジャン","latitude" : 36.537833,"longitude" : 136.628117,"address" : "〒921-8163 石川県金沢市横川6-80 ","tel" : "076-241-8929 ","opentime" : "{}","holiday" : "{}","search_time" : ["{}" ],"search_holiday" : { "days" :  "{}" , "month" :  "{}" },"access_line" : "北陸鉄道石川線","access_station" : "押野駅","access_walk" : 5,"budget" : 0,"category_names" : ["焼肉"]},{"id" : "5402564","name" : "中華料理 珉来 ","name_kana" : "チュウカリョウリミンライ","latitude" : 36.526625,"longitude" : 136.634953,"address" : "〒921-8162 石川県金沢市三馬3-240 ","tel" : "076-247-0008 ","opentime" : "{}","holiday" : "{}","search_time" : ["{}" ],"search_holiday" : { "days" :  "{}" , "month" :  "{}" },"access_line" : "北陸鉄道石川線","access_station" : "野々市工大前駅","access_walk" : 14,"budget" : 0,"category_names" : ["中華料理"]},{"id" : "7342501","name" : "能加万菜 Agri アグリ ","name_kana" : "ノウカバンザイアグリ","latitude" : 36.531278,"longitude" : 136.619761,"address" : "〒921-8817 石川県野々市市横宮町16-3 ","tel" : "076-218-4155 ","opentime" : " ディナー：18:00～23:00(L.O.22:00)<BR>月～日・祝前日・祝日 ランチ：11:00～16:00(ランチのラストインは15:00です。)","holiday" : "{}","search_time" : ["{}" ],"search_holiday" : { "days" :  "{}" , "month" :  "{}" },"access_line" : "北陸鉄道石川線","access_station" : "野々市駅","access_walk" : 7,"budget" : 3500,"category_names" : ["バイキング・ビュッフェ", "イタリアン(イタリア料理)"]},{"id" : "7414269","name" : "Restaurant LA TERRA ","name_kana" : "レストランラテラ","latitude" : 36.524056,"longitude" : 136.629747,"address" : "〒921-8501 石川県野々市市扇が丘22-7-1 金沢工業大学21号館1F","tel" : "076-248-3464 ","opentime" : "{}","holiday" : "{}","search_time" : ["{}" ],"search_holiday" : { "days" :  "{}" , "month" :  "{}" },"access_line" : "北陸鉄道石川線","access_station" : "馬替駅","access_walk" : 11,"budget" : 0,"category_names" : ["定食・食事処"]},{"id" : "5159671","name" : "酔扇 ","name_kana" : "スイセン","latitude" : 36.524394,"longitude" : 136.625083,"address" : "〒921-8812 石川県野々市市扇が丘16-18 ","tel" : "076-294-0304 ","opentime" : "{}","holiday" : "{}","search_time" : ["{}" ],"search_holiday" : { "days" :  "{}" , "month" :  "{}" },"access_line" : "北陸鉄道石川線","access_station" : "野々市工大前駅","access_walk" : 1,"budget" : 0,"category_names" : ["居酒屋"]},{"id" : "3110181","name" : "支那そば屋 金沢本店","name_kana" : "シナソバヤ カナザワホンテン","latitude" : 36.526242,"longitude" : 136.635089,"address" : "〒921-8162 石川県金沢市三馬3-193 ","tel" : "076-244-9144 ","opentime" : "月～日 ランチ・ディナー：11:00～24:00(L.O.24:00)","holiday" : "無","search_time" : ["1&2&3&4&5&6&7,11-00,24-00" ],"search_holiday" : { "days" :  "{}" , "month" :  "{}" },"access_line" : "北鉄石川線","access_station" : "金沢工大前駅","access_walk" : 15,"budget" : 850,"category_names" : ["ラーメン・麺料理 その他"]},{"id" : "7273707","name" : "豆の樹 ","name_kana" : "マメノキ","latitude" : 36.526278,"longitude" : 136.635339,"address" : "〒921-8162 石川県金沢市三馬3-195 ","tel" : "076-244-2433 ","opentime" : "{}","holiday" : "{}","search_time" : ["{}" ],"search_holiday" : { "days" :  "{}" , "month" :  "{}" },"access_line" : "北陸鉄道石川線","access_station" : "野々市工大前駅","access_walk" : 14,"budget" : 0,"category_names" : ["コーヒー"]},{"id" : "5908884","name" : "たんと ","name_kana" : "タント","latitude" : 36.524261,"longitude" : 136.632431,"address" : "〒921-8812 石川県野々市市扇が丘9-20 扇が丘ビル1F","tel" : "076-294-2138 ","opentime" : "月～木・日 ディナー：18:00～翌3:00(L.O.2:40)<BR>金・土 ディナー：17:00～翌5:00(L.O.4:30)","holiday" : "第3水曜日","search_time" : ["1&2&3&4&5,18-00,27-00" ],"search_holiday" : { "days" :  "{}" , "month" :  "3,4" },"access_line" : "北陸鉄道石川線","access_station" : "馬替駅","access_walk" : 4,"budget" : 2500,"category_names" : ["居酒屋", "焼き鳥・肉料理・串料理 その他"]},{"id" : "7187303","name" : "いるたけ ","name_kana" : "イルタケ","latitude" : 36.526692,"longitude" : 136.636300,"address" : "〒921-8162 石川県金沢市三馬3‐231 アクタスビル1F","tel" : "076-259-1653 ","opentime" : "{}","holiday" : "{}","search_time" : ["{}" ],"search_holiday" : { "days" :  "{}" , "month" :  "{}" },"access_line" : "北陸鉄道石川線","access_station" : "野々市工大前駅","access_walk" : 15,"budget" : 0,"category_names" : ["パスタ"]},{"id" : "7064347","name" : "HPNOTIQ ","name_kana" : "ヒプノティック","latitude" : 36.526692,"longitude" : 136.636300,"address" : "〒921-8162 石川県金沢市三馬3-231 ","tel" : "076-241-3567 ","opentime" : "月・水～日 21:00～翌03:00","holiday" : "毎週火曜日","search_time" : ["1&2&4&5&6&7,21-00,27-00" ],"search_holiday" : { "days" :  "{}" , "month" :  "{}" },"access_line" : "北陸鉄道石川線","access_station" : "野々市工大前駅","access_walk" : 16,"budget" : 0,"category_names" : ["バー"]},{"id" : "r181806","name" : "サイゼリヤ 金沢三馬店","name_kana" : "サイゼリヤ カナザワミンマテン","latitude" : 36.524183,"longitude" : 136.632753,"address" : "〒921-8162 石川県金沢市三馬3-345","tel" : "076-244-0867 ","opentime" : " 11:00～24:00","holiday" : "無","search_time" : ["1&2&3&4&5&6&7,11-00,24-00" ],"search_holiday" : { "days" :  "{}" , "month" :  "{}" },"access_line" : "北陸鉄道石川線","access_station" : "馬替駅","access_walk" : 15,"budget" : 750,"category_names" : ["イタリアン(イタリア料理)", "ファミリーレストラン"]},{"id" : "5638575","name" : "みそ膳福々亭横川店 ","name_kana" : "ミソゼンフクフクテイヨコガワテン","latitude" : 36.538872,"longitude" : 136.628050,"address" : "〒921-8163 石川県金沢市横川6-116-1 ","tel" : "076-244-7716 ","opentime" : "{}","holiday" : "毎週月曜日<BR>※祭日なら火曜日","search_time" : ["{}" ],"search_holiday" : { "days" :  "{}" , "month" :  "{}" },"access_line" : "北陸鉄道石川線","access_station" : "押野駅","access_walk" : 5,"budget" : 0,"category_names" : ["ラーメン"]},{"id" : "r184303","name" : "餃子の王将 野々市店","name_kana" : "ギョウザノオウショウ ノノイチテン","latitude" : 36.533428,"longitude" : 136.619131,"address" : "〒921-8817 石川県野々市市横宮町58-2","tel" : "076-246-0924 ","opentime" : "月～土・祝日 11:00～翌1:00(L.O.24:45)<BR>日 11:00～23:00(L.O.22:30)(※連休最終日も上記営業時間となります。)","holiday" : "年中無休<BR>※年末年始の営業は異なります","search_time" : ["2&3&4&5&6&7,11-00,25-00","1,11-00,23-00" ],"search_holiday" : { "days" :  "{}" , "month" :  "{}" },"access_line" : "北陸鉄道石川線","access_station" : "野々市駅","access_walk" : 5,"budget" : 800,"category_names" : ["餃子", "中華料理"]},{"id" : "5159147","name" : "虎秀館 ","name_kana" : "コシュウカン","latitude" : 36.526569,"longitude" : 136.636486,"address" : "〒921-8162 石川県金沢市三馬3-231 アクタスビル107","tel" : "076-241-6518 ","opentime" : "火～日 ディナー：18:00～翌5:00(L.O.3:30)","holiday" : "毎週月曜日","search_time" : ["{}" ],"search_holiday" : { "days" :  "{}" , "month" :  "{}" },"access_line" : "北陸鉄道石川線","access_station" : "野々市工大前駅","access_walk" : 4,"budget" : 2700,"category_names" : ["居酒屋", "その他の料理"]},{"id" : "5159668","name" : "しんちゃん ","name_kana" : "シンチャン","latitude" : 36.530264,"longitude" : 136.618447,"address" : "〒921-8815 石川県野々市市本町3-6-31 ","tel" : "076-246-5987 ","opentime" : "{}","holiday" : "{}","search_time" : ["1&3&4&5&6&7,18-00,29-00" ],"search_holiday" : { "days" :  "{}" , "month" :  "{}" },"access_line" : "北陸鉄道石川線","access_station" : "野々市工大前駅","access_walk" : 1,"budget" : 0,"category_names" : ["居酒屋"]},{"id" : "6266311","name" : "凌駕堂 ","name_kana" : "リョウガドウ","latitude" : 36.523492,"longitude" : 136.632492,"address" : "〒921-8162 石川県金沢市三馬1-389 ","tel" : "076-287-6572 ","opentime" : "火～日 昼の部：11:30～14:00<BR>火～日 夜の部：18:00～21:00(L.O.21:00)","holiday" : "毎週月曜日","search_time" : ["1&3&4&5&6&7,11-30,14-00","3&4&5&6&7&1,18-00,21-00" ],"search_holiday" : { "days" :  "{}" , "month" :  "{}" },"access_line" : "北陸鉄道石川線","access_station" : "馬替駅","access_walk" : 10,"budget" : 800,"category_names" : ["ラーメン・麺料理 その他"]},{"id" : "5896216","name" : "いごこち ","name_kana" : "イゴコチ","latitude" : 36.524183,"longitude" : 136.622733,"address" : "〒921-8813 石川県野々市市住吉町14-47 ","tel" : "076-248-3993 ","opentime" : "{}","holiday" : "{}","search_time" : ["{}" ],"search_holiday" : { "days" :  "{}" , "month" :  "{}" },"access_line" : "北陸鉄道石川線","access_station" : "馬替駅","access_walk" : 8,"budget" : 0,"category_names" : ["喫茶店・軽食"]},{"id" : "r679902","name" : "和牛焼肉 大黒 ","name_kana" : "ワギュウヤキニクダイコク","latitude" : 36.533692,"longitude" : 136.618706,"address" : "〒921-8817 石川県野々市市横宮町3-5","tel" : "050-3491-5214 ","opentime" : "月～土 17:00～翌1:00(L.O.24:00)<BR>日・祝日 17:00～24:00(L.O.23:00)","holiday" : "不定休日あり<BR>年末年始（2017年12月31日・2018年1月1日）<BR>※※月2回","search_time" : ["{}" ],"search_holiday" : { "days" :  "{}" , "month" :  "{}" },"access_line" : "北陸鉄道石川線","access_station" : "野々市駅","access_walk" : 5,"budget" : 3700,"category_names" : ["焼肉", "居酒屋"]},{"id" : "6953846","name" : "シャルマ 野々市店 ","name_kana" : "シャルマノノイチテン","latitude" : 36.532294,"longitude" : 136.618114,"address" : "〒921-8817 石川県野々市市横宮町13-22 ","tel" : "076-256-3114 ","opentime" : "{}","holiday" : "{}","search_time" : ["{}" ],"search_holiday" : { "days" :  "{}" , "month" :  "{}" },"access_line" : "北陸鉄道石川線","access_station" : "野々市（北陸鉄道）駅","access_walk" : 7,"budget" : 0,"category_names" : ["インドカレー"]},{"id" : "5289607","name" : "お多福 扇が丘店 ","name_kana" : "オタフクオウギガオカテン","latitude" : 36.523203,"longitude" : 136.632422,"address" : "〒921-8162 石川県金沢市三馬1-386 ","tel" : "076-242-4878 ","opentime" : "{}","holiday" : "{}","search_time" : ["{}" ],"search_holiday" : { "days" :  "{}" , "month" :  "{}" },"access_line" : "北陸鉄道石川線","access_station" : "馬替駅","access_walk" : 14,"budget" : 0,"category_names" : ["そば"]},{"id" : "5909946","name" : "苺花 ","name_kana" : "イチカ","latitude" : 36.526642,"longitude" : 136.637436,"address" : "〒921-8162 石川県金沢市三馬2-292 ","tel" : "076-241-2021 ","opentime" : "{}","holiday" : "{}","search_time" : ["{}" ],"search_holiday" : { "days" :  "{}" , "month" :  "{}" },"access_line" : "北陸鉄道石川線","access_station" : "野々市工大前駅","access_walk" : 17,"budget" : 0,"category_names" : ["そば"]},{"id" : "5159689","name" : "和食処 山ごぼう ","name_kana" : "ワショクドコロヤマゴボウ","latitude" : 36.531511,"longitude" : 136.617919,"address" : "〒921-8817 石川県野々市市横宮町14-46 ","tel" : "076-246-5105 ","opentime" : "火～金 11:30～14:00<BR>火～日 18:00～23:00(L.O.22:00)","holiday" : "毎週月曜日","search_time" : ["3&4&5&6,11-30,14-00","3&4&5&6&7&1,18-00,23-00" ],"search_holiday" : { "days" :  "{}" , "month" :  "{}" },"access_line" : "北陸鉄道石川線","access_station" : "野々市（北陸鉄道）駅","access_walk" : 8,"budget" : 0,"category_names" : ["会席料理"]},{"id" : "5811103","name" : "珈琲のばん ","name_kana" : "コーヒーノバン","latitude" : 36.526314,"longitude" : 136.637311,"address" : "〒921-8162 石川県金沢市三馬2-34 坂下ビル","tel" : "076-247-2353 ","opentime" : " 10:00～19:30","holiday" : "第2日曜日 第4日曜日","search_time" : ["{}" ],"search_holiday" : { "days" :  "{}" , "month" :  "{}" },"access_line" : "北陸鉄道石川線","access_station" : "野々市工大前駅","access_walk" : 17,"budget" : 0,"category_names" : ["カフェ"]},{"id" : "5349306","name" : "ステーキハウス 合掌 ","name_kana" : "ステーキハウスガッショウ","latitude" : 36.526314,"longitude" : 136.637311,"address" : "〒921-8162 石川県金沢市三馬2-34 坂下ビル1F","tel" : "076-247-0667 ","opentime" : "{}","holiday" : "{}","search_time" : ["{}" ],"search_holiday" : { "days" :  "{}" , "month" :  "{}" },"access_line" : "北陸鉄道石川線","access_station" : "野々市工大前駅","access_walk" : 17,"budget" : 0,"category_names" : ["ステーキ"]},{"id" : "5309579","name" : "古都加賀おでん みひろ ","name_kana" : "コトカガオデンミヒロ","latitude" : 36.526358,"longitude" : 136.637583,"address" : "〒921-8162 石川県金沢市三馬2-34 坂下ビル1F","tel" : "076-243-5149 ","opentime" : "月・火・木～日 ディナー：18:00～翌3:00(L.O.3:00)","holiday" : "毎週水曜日","search_time" : ["1&2&4&5&6&7,18-00,27-00" ],"search_holiday" : { "days" :  "{}" , "month" :  "{}" },"access_line" : "JR","access_station" : "金沢駅","access_walk" : 30,"budget" : 3000,"category_names" : ["おでん"]},{"id" : "5039204","name" : "おでん ひょうたん ","name_kana" : "オデンヒョウタン","latitude" : 36.538750,"longitude" : 136.623397,"address" : "〒921-8802 石川県野々市市押野4-122-1 ","tel" : "076-294-3185 ","opentime" : "{}","holiday" : "{}","search_time" : ["{}" ],"search_holiday" : { "days" :  "{}" , "month" :  "{}" },"access_line" : "北陸鉄道石川線","access_station" : "押野駅","access_walk" : 1,"budget" : 0,"category_names" : ["おでん"]},{"id" : "5039198","name" : "九州鶏七輪焼 才谷屋 ","name_kana" : "キュウシュウドリシチリンヤキサイタニヤ","latitude" : 36.532050,"longitude" : 136.617661,"address" : "〒921-8816 石川県野々市市若松町10-22 ","tel" : "076-294-1611 ","opentime" : "月～土・祝前日 夕食：18:00～翌03:00(L.O.03:00)<BR>日・祝日 夕食：17:00～翌03:00(L.O.03:00)","holiday" : "無<BR>※元旦のみ休み","search_time" : ["{}" ],"search_holiday" : { "days" :  "{}" , "month" :  "{}" },"access_line" : "北陸鉄道石川線","access_station" : "野々市（北陸鉄道）駅","access_walk" : 8,"budget" : 0,"category_names" : ["鶏料理(鳥料理)"]},{"id" : "6427053","name" : "丸源ラーメン 金沢横川店 ","name_kana" : "マルゲンラーメンカナザワヨコカワテン","latitude" : 36.539864,"longitude" : 136.628719,"address" : "〒921-8163 石川県金沢市横川7-38-1 ","tel" : "076-259-6331 ","opentime" : " 11:00～翌01:00(L.O.24:30)<BR>土・日・祝日 11:00～翌01:00(L.O.24:30)","holiday" : "{}","search_time" : ["{}" ],"search_holiday" : { "days" :  "{}" , "month" :  "{}" },"access_line" : "北陸鉄道石川線","access_station" : "押野駅","access_walk" : 6,"budget" : 0,"category_names" : ["ラーメン"]},{"id" : "5834540","name" : "しん馬 ","name_kana" : "シンマ","latitude" : 36.536581,"longitude" : 136.636997,"address" : "〒921-8164 石川県金沢市久安5-383-1 ","tel" : "076-247-4884 ","opentime" : "月・木～日・祝日 ランチ：11:00～15:00(L.O.15:00)","holiday" : "毎週火・水曜日","search_time" : ["{}" ],"search_holiday" : { "days" :  "{}" , "month" :  "{}" },"access_line" : "ＪＲ北陸本線","access_station" : "金沢駅","access_walk" : 25,"budget" : 1200,"category_names" : ["そば"]},{"id" : "6427938","name" : "バール ジェルソ ","name_kana" : "バールジェルソ","latitude" : 36.526261,"longitude" : 136.637717,"address" : "〒921-8162 石川県金沢市三馬2-232 ","tel" : "076-241-1134 ","opentime" : "{}","holiday" : "{}","search_time" : ["2&3&4&5&6&7,07-30,22-00" ],"search_holiday" : { "days" :  "12-29,12-30,12-31,01-01,01-02,01-03,01-04" , "month" :  "{}" },"access_line" : "北陸鉄道石川線","access_station" : "野々市工大前駅","access_walk" : 17,"budget" : 0,"category_names" : ["イタリアン(イタリア料理)"]},{"id" : "5346859","name" : "なかなか ","name_kana" : "ナカナカ","latitude" : 36.535542,"longitude" : 136.618833,"address" : "〒921-8802 石川県野々市市押野3-51 ","tel" : "076-246-4284 ","opentime" : "{}","holiday" : "{}","search_time" : ["2&3&4&5,18-00,25-00" , "6&7,18-00,26-00" ],"search_holiday" : { "days" :  "{}" , "month" :  "{}" },"access_line" : "北陸鉄道石川線","access_station" : "野々市（北陸鉄道）駅","access_walk" : 9,"budget" : 0,"category_names" : ["焼肉"]},{"id" : "5219768","name" : "焼肉 びーとん ","name_kana" : "ヤキニクビートン","latitude" : 36.523742,"longitude" : 136.621961,"address" : "〒921-8813 石川県野々市市住吉町14-60 ","tel" : "076-294-0212 ","opentime" : "{}","holiday" : "{}","search_time" : ["1&2&3&4&6&7,07-30,18-30"],"search_holiday" : { "days" :  "{}", "month" :  "{}" },"access_line" : "北陸鉄道石川線","access_station" : "馬替駅","access_walk" : 7,"budget" : 0,"category_names" : ["焼肉"]},{"id" : "5858730","name" : "セレーネ ","name_kana" : "セレーネ","latitude" : 36.526219,"longitude" : 136.637881,"address" : "〒921-8162 石川県金沢市三馬2-233 ","tel" : "076-242-3617 ","opentime" : "{}","holiday" : "{}","search_time" : ["3&4&5&6&7,18-00,26-00" ],"search_holiday" : { "days" :  "{}" , "month" :  "3,2" },"access_line" : "北陸鉄道石川線","access_station" : "野々市工大前駅","access_walk" : 17,"budget" : 0,"category_names" : ["喫茶店・軽食"]},{"id" : "7253923","name" : "串酒場 おきはる屋 ","name_kana" : "クシサカバオキハルヤ","latitude" : 36.534906,"longitude" : 136.618250,"address" : "〒921-8816 石川県野々市市若松町1-5 ","tel" : "076-246-1212 ","opentime" : " ディナー：17:30～翌2:00(L.O.1:00)<BR>日・祝日 ディナー：17:30～24:00","holiday" : "毎週火曜日<BR>※祝前日は営業致します","search_time" : ["2&3&4&5&6&7,18-00,25-00" ],"search_holiday" : { "days" :  "{}" , "month" :  "{}" },"access_line" : "ＪＲ北陸本線","access_station" : "野々市駅","access_walk" : 5,"budget" : 3000,"category_names" : ["居酒屋", "串焼き"]},{"id" : "6975114","name" : "たこ焼八ちゃん 野々市店 ","name_kana" : "タコヤキハッチャンノノイチテン","latitude" : 36.530394,"longitude" : 136.617131,"address" : "〒921-8816 石川県野々市市若松町23-24 ","tel" : "076-246-0594 ","opentime" : " (10:00～11:30(L.O.))","holiday" : "毎週水曜日","search_time" : ["{}" ],"search_holiday" : { "days" :  "{}" , "month" :  "{}" },"access_line" : "北陸鉄道石川線","access_station" : "野々市工大前駅","access_walk" : 10,"budget" : 0,"category_names" : ["たこ焼き"]},{"id" : "5477817","name" : "ぽん太 ","name_kana" : "ポンタ","latitude" : 36.525811,"longitude" : 136.619119,"address" : "〒921-8814 石川県野々市市菅原町8-36 ","tel" : "076-248-3370 ","opentime" : "{}","holiday" : "{}","search_time" : ["{}" ],"search_holiday" : { "days" :  "{}" , "month" :  "{}" },"access_line" : "北陸鉄道石川線","access_station" : "野々市工大前駅","access_walk" : 11,"budget" : 0,"category_names" : ["焼き鳥"]},{"id" : "5899987","name" : "スーパーフリークス 野々市本店 ","name_kana" : "スーパーフリークスノノイチホンテン","latitude" : 36.531592,"longitude" : 136.617075,"address" : "〒921-8816 石川県野々市市若松町21-10 ","tel" : "076-246-4485 ","opentime" : "{}","holiday" : "年中無休","search_time" : ["2&3&4&5&6&7,11-00,14-00", "2&3&4&5&6&7,17-00,25-00" ],"search_holiday" : { "days" :  "{}" , "month" :  "{}" },"access_line" : "北陸鉄道石川線","access_station" : "野々市（北陸鉄道）駅","access_walk" : 10,"budget" : 0,"category_names" : ["インターネットカフェ"]},{"id" : "5838202","name" : "野々市ダイニング KUSAMA ","name_kana" : "ノノイチダイニングクサマ","latitude" : 36.534992,"longitude" : 136.618133,"address" : "〒921-8816 石川県野々市市若松町1-24 アイリスハイツ1F","tel" : "076-294-4003 ","opentime" : " 18:00～24:00(L.O.23:00)<BR>月～金 11:30～14:30(L.O.14:00)<BR>土・日・祝日・祝前日 18:00～24:00(L.O.23:00)","holiday" : "無","search_time" : ["1&2&3&5&6&7,11-30,14-00", "1&2&3&5&6&7,17-30,22-00" ],"search_holiday" : { "days" :  "{}" , "month" :  "{}" },"access_line" : "北陸鉄道石川線","access_station" : "野々市（北陸鉄道）駅","access_walk" : 8,"budget" : 0,"category_names" : ["ダイニングバー"]},{"id" : "6313778","name" : "お好み焼 つくし ","name_kana" : "オコノミヤキツクシ","latitude" : 36.526567,"longitude" : 136.638511,"address" : "〒921-8162 石川県金沢市三馬2-252 神保ビル103号","tel" : "076-242-4634 ","opentime" : "月・水～日 ランチ・ディナー：11:00～22:00(L.O.21:30)","holiday" : "毎週火曜日<BR>年末年始（2017年12月31日～2018年1月2日）<BR>※※12月12日は休まず営業いたします※12月26日は休まず営業いたします","search_time" : ["2&3&4&5&6&7,17-00,25-00" ],"search_holiday" : { "days" :  "{}" , "month" :  "0,japanese_holiday" },"access_line" : "ＪＲ北陸本線","access_station" : "金沢駅","access_walk" : 30,"budget" : 2000,"category_names" : ["お好み焼き"]},{"id" : "6301134","name" : "旬の味 いっしん ","name_kana" : "シュンノアジイッシン","latitude" : 36.531822,"longitude" : 136.639997,"address" : "〒921-8178 石川県金沢市寺地2-21-10 ","tel" : "076-244-3779 ","opentime" : "{}","holiday" : "{}","search_time" : ["{}" ],"search_holiday" : { "days" :  "{}" , "month" :  "{}" },"access_line" : "北陸鉄道石川線","access_station" : "野々市工大前駅","access_walk" : 20,"budget" : 0,"category_names" : ["居酒屋"]},{"id" : "5349309","name" : "ステーキ かんだ ","name_kana" : "ステーキカンダ","latitude" : 36.526261,"longitude" : 136.638528,"address" : "〒921-8162 石川県金沢市三馬2-239 ","tel" : "076-280-7770 ","opentime" : "{}","holiday" : "{}","search_time" : ["{}" ],"search_holiday" : { "days" :  "{}" , "month" :  "{}" },"access_line" : "北陸鉄道石川線","access_station" : "野々市工大前駅","access_walk" : 18,"budget" : 7500,"category_names" : ["ステーキ"]},{"id" : "6064422","name" : "夢茶寮 海都 ","name_kana" : "ユメサリョウカイト","latitude" : 36.535397,"longitude" : 136.638897,"address" : "〒921-8161 石川県金沢市有松4-13-8 ","tel" : "076-280-6527 ","opentime" : "月～日・祝日・祝前日 昼の部：11:30～14:30(L.O.14:30)<BR>月～日・祝日・祝前日 居酒屋タイム：17:30～21:30(L.O.21:30)","holiday" : "年中無休<BR>※不定休有り","search_time" : ["1&2&3&4&5&6&7,11-00,24-00" ],"search_holiday" : { "days" :  "{}" , "month" :  "{}" },"access_line" : "北陸鉄道石川線","access_station" : "野々市工大前駅","access_walk" : 21,"budget" : 0,"category_names" : ["居酒屋"]},{"id" : "5620907","name" : "ひりゅう ","name_kana" : "ヒリュウ","latitude" : 36.530919,"longitude" : 136.640242,"address" : "〒921-8177 石川県金沢市伏見台2-8-7 ","tel" : "076-245-6061 ","opentime" : "{}","holiday" : "{}","search_time" : ["{}" ],"search_holiday" : { "days" :  "{}" , "month" :  "{}" },"access_line" : "北陸鉄道石川線","access_station" : "野々市工大前駅","access_walk" : 21,"budget" : 0,"category_names" : ["居酒屋"]},{"id" : "7489427","name" : "コンコント菓子店 ","name_kana" : "コンコントカシテン","latitude" : 36.540444,"longitude" : 136.630586,"address" : "〒921-8163 石川県金沢市横川5-267 ","tel" : "076-220-7889 ","opentime" : "{}","holiday" : "{}","search_time" : ["{}" ],"search_holiday" : { "days" :  "{}" , "month" :  "{}" },"access_line" : "北陸鉄道石川線","access_station" : "押野駅","access_walk" : 8,"budget" : 0,"category_names" : ["ケーキ屋・スイーツ"]},{"id" : "5372515","name" : "ゑまひ寿司 ","name_kana" : "エマヒスシ","latitude" : 36.530311,"longitude" : 136.616450,"address" : "〒921-8816 石川県野々市市若松町23-32 ","tel" : "076-246-8228 ","opentime" : "{}","holiday" : "{}","search_time" : ["{}" ],"search_holiday" : { "days" :  "{}" , "month" :  "{}" },"access_line" : "北陸鉄道石川線","access_station" : "野々市工大前駅","access_walk" : 10,"budget" : 0,"category_names" : ["寿司"]},{"id" : "5289707","name" : "うどん そば 天一屋 ","name_kana" : "ウドンソバテンイチヤ","latitude" : 36.526236,"longitude" : 136.639181,"address" : "〒921-8162 石川県金沢市三馬2-244 ","tel" : "076-241-3910 ","opentime" : "{}","holiday" : "{}","search_time" : ["1&2&3&5&6&7,11-00,22-00" ],"search_holiday" : { "days" :  "{}" , "month" :  "{}" },"access_line" : "北陸鉄道石川線","access_station" : "野々市工大前駅","access_walk" : 19,"budget" : 0,"category_names" : ["うどん"]},{"id" : "1092098","name" : "焼肉 冷麺 しちりん家 有松店 ","name_kana" : "ヤキニクレイメンシチリンヤアリマツテン","latitude" : 36.535306,"longitude" : 136.639528,"address" : "〒921-8161 石川県金沢市有松5-10-53 ラグーン新大阪2F201","tel" : "076-280-2929 ","opentime" : "火～金 ディナー：17:00～23:30(L.O.23:00)<BR>土・日・祝日 ディナー：16:30～23:30(L.O.23:00)","holiday" : "毎週月曜日","search_time" : ["1&2&3&4&5&6&7,18-00,25-00" ],"search_holiday" : { "days" :  "{}" , "month" :  "{}" },"access_line" : "北陸鉄道石川線","access_station" : "野々市工大前駅","access_walk" : 22,"budget" : 0,"category_names" : ["焼肉"]},{"id" : "3110161","name" : "割烹 利久 ","name_kana" : "カッポウリキュウ","latitude" : 36.535867,"longitude" : 136.639328,"address" : "〒921-8161 石川県金沢市有松4-13-37 ","tel" : "076-247-4111 ","opentime" : "{}","holiday" : "{}","search_time" : ["{}" ],"search_holiday" : { "days" :  "{}" , "month" :  "{}" },"access_line" : "北陸鉄道石川線","access_station" : "押野駅","access_walk" : 20,"budget" : 3000,"category_names" : ["割烹"]},{"id" : "5414158","name" : "中国料理 樓外樓 ","name_kana" : "チュウゴクリョウリロウガイロウ","latitude" : 36.531017,"longitude" : 136.615878,"address" : "〒921-8816 石川県野々市市若松町19-16 ","tel" : "076-246-5506 ","opentime" : "月～日 11:00～22:30(L.O.22:00)","holiday" : "※大晦日．元旦","search_time" : ["{}" ],"search_holiday" : { "days" :  "{}" , "month" :  "{}" },"access_line" : "北陸鉄道石川線","access_station" : "野々市（北陸鉄道）駅","access_walk" : 12,"budget" : 0,"category_names" : ["中華料理"]},{"id" : "5159368","name" : "和来 ","name_kana" : "ヤワラギ","latitude" : 36.526831,"longitude" : 136.640025,"address" : "〒921-8151 石川県金沢市窪7-202 ","tel" : "076-243-2271 ","opentime" : "{}","holiday" : "{}","search_time" : ["{}" ],"search_holiday" : { "days" :  "{}" , "month" :  "{}" },"access_line" : "北陸鉄道石川線","access_station" : "野々市工大前駅","access_walk" : 20,"budget" : 0,"category_names" : ["居酒屋"]},{"id" : "7338091","name" : "アイレット キャンティーン ","name_kana" : "アイレットキャンティーン","latitude" : 36.535686,"longitude" : 136.639864,"address" : "〒921-8161 石川県金沢市有松5-10-27 ","tel" : "076-259-6131 ","opentime" : "{}","holiday" : "{}","search_time" : ["1&2&3&4&6&7,17-00,25-00" ],"search_holiday" : { "days" :  "{}" , "month" :  "{}" },"access_line" : "北陸鉄道石川線","access_station" : "押野駅","access_walk" : 21,"budget" : 0,"category_names" : ["カフェ"]},{"id" : "5465165","name" : "ビストロ heureux ","name_kana" : "ビストロウールー","latitude" : 36.536797,"longitude" : 136.617742,"address" : "〒921-8802 石川県野々市市押野2-178 ","tel" : "076-294-0093 ","opentime" : "火～日 ランチ：11:30～14:00(L.O.14:00)<BR>火～日 ディナー：18:00～21:30(L.O.21:30)","holiday" : "毎週月曜日<BR>※祝日の場合は翌日。月一回不定休","search_time" : ["{}" ],"search_holiday" : { "days" :  "{}" , "month" :  "{}" },"access_line" : "北陸鉄道石川線","access_station" : "押野駅","access_walk" : 11,"budget" : 0,"category_names" : ["ビストロ"]},{"id" : "7015254","name" : "李家楼 ","name_kana" : "リカロウ","latitude" : 36.541250,"longitude" : 136.630650,"address" : "〒921-8044 石川県金沢市米泉町1-77-1 ","tel" : "076-247-7738 ","opentime" : "{}","holiday" : "{}","search_time" : ["{}" ],"search_holiday" : { "days" :  "{}" , "month" :  "{}" },"access_line" : "北陸鉄道石川線","access_station" : "押野駅","access_walk" : 8,"budget" : 0,"category_names" : ["中華料理"]},{"id" : "5651382","name" : "きむら屋 ","name_kana" : "キムラヤ","latitude" : 36.537067,"longitude" : 136.617928,"address" : "〒921-8802 石川県野々市市押野2-204 ","tel" : "076-294-3355 ","opentime" : "{}","holiday" : "{}","search_time" : ["1&2&3&5&6&7,17-30,25-00" ],"search_holiday" : { "days" :  "01-01,01-13" , "month" :  "{}" },"access_line" : "北陸鉄道石川線","access_station" : "野々市（北陸鉄道）駅","access_walk" : 12,"budget" : 0,"category_names" : ["刺身・海鮮料理"]},{"id" : "r156226","name" : "ガスト 金沢伏見台店","name_kana" : "ガスト カナザワフシミダイテン","latitude" : 36.528511,"longitude" : 136.641031,"address" : "〒921-8177 石川県金沢市伏見台3-1-11","tel" : "076-280-8100 ","opentime" : "月～金 7:00～翌2:00<BR>土・日・祝 6:45～翌2:00","holiday" : "無","search_time" : ["{}" ],"search_holiday" : { "days" :  "{}" , "month" :  "{}" },"access_line" : "北陸鉄道石川線","access_station" : "野々市工大前駅","access_walk" : 25,"budget" : 800,"category_names" : ["ファミリーレストラン", "ハンバーグ"]},{"id" : "r178072","name" : "マクドナルド 金沢有松店","name_kana" : "マクドナルド カナザワアリマツテン","latitude" : 36.536375,"longitude" : 136.639597,"address" : "〒921-8161 石川県金沢市有松4-10-10","tel" : "076-241-3350 ","opentime" : "月～金 7:00～24:00<BR>土・日・祝 6:00～24:00<BR> 7:00～10:30((朝マック))","holiday" : "無","search_time" : ["3&4&5&6,18-00,24-00","1&7,17-00,24-00" ],"search_holiday" : { "days" :  "{}" , "month" :  "{}" },"access_line" : "北陸鉄道石川線","access_station" : "押野駅","access_walk" : 8,"budget" : 500,"category_names" : ["ファーストフード", "ハンバーガー"]},{"id" : "5402651","name" : "一龍 ","name_kana" : "イチリュウ","latitude" : 36.523675,"longitude" : 136.619219,"address" : "〒921-8814 石川県野々市市菅原町14-25 ","tel" : "076-248-1001 ","opentime" : "{}","holiday" : "{}","search_time" : ["{}" ],"search_holiday" : { "days" :  "{}" , "month" :  "{}" },"access_line" : "北陸鉄道石川線","access_station" : "馬替駅","access_walk" : 9,"budget" : 0,"category_names" : ["中華料理"]},{"id" : "5219598","name" : "炭火焼肉 ヤンバン ","name_kana" : "スミビヤキニクヤンバン","latitude" : 36.526736,"longitude" : 136.640361,"address" : "〒921-8151 石川県金沢市窪7-255-2 ","tel" : "076-245-1129 ","opentime" : "{}","holiday" : "{}","search_time" : ["{}" ],"search_holiday" : { "days" :  "{}" , "month" :  "{}" },"access_line" : "北陸鉄道石川線","access_station" : "野々市工大前駅","access_walk" : 21,"budget" : 0,"category_names" : ["焼肉"]},{"id" : "r626781","name" : "８番らーめん 横川店","name_kana" : "ハチバンラーメン ヨコガワテン","latitude" : 36.541289,"longitude" : 136.631378,"address" : "〒921-8044 石川県金沢市米泉1-70-1","tel" : "076-280-9588 ","opentime" : " 11:00～翌2:00(L.O.1:30)","holiday" : "無","search_time" : ["{}" ],"search_holiday" : { "days" :  "{}" , "month" :  "{}" },"access_line" : "北陸鉄道石川線","access_station" : "押野駅","access_walk" : 8,"budget" : 800,"category_names" : ["ラーメン"]},{"id" : "6314447","name" : "愛の歌ラブ ソング ","name_kana" : "アイノウタラブソング","latitude" : 36.541639,"longitude" : 136.628667,"address" : "〒921-8044 石川県金沢市米泉町1-17 ","tel" : "076-280-0122 ","opentime" : "{}","holiday" : "{}","search_time" : ["{}" ],"search_holiday" : { "days" :  "{}" , "month" :  "{}" },"access_line" : "北陸鉄道石川線","access_station" : "押野駅","access_walk" : 6,"budget" : 0,"category_names" : ["カラオケボックス"]},{"id" : "r183706","name" : "すし食いねぇ！ 金沢寺地店","name_kana" : "スシクイネェ カナザワテラジテン","latitude" : 36.531711,"longitude" : 136.641708,"address" : "〒921-8178 石川県金沢市寺地2-3-10","tel" : "076-243-5151 ","opentime" : " 11:00～21:30","holiday" : "※※元日のみ休業","search_time" : ["{}" ],"search_holiday" : { "days" :  "{}" , "month" :  "{}" },"access_line" : "北陸鉄道石川線","access_station" : "野々市工大前駅","access_walk" : 14,"budget" : 1600,"category_names" : ["回転寿司", "寿司"]},{"id" : "5448618","name" : "ミスタードーナツ 金沢高尾台ショップ ","name_kana" : "ミスタードーナツカナザワタカオダイショップ","latitude" : 36.520611,"longitude" : 136.631514,"address" : "〒921-8155 石川県金沢市高尾台2-135 ","tel" : "076-298-8127 ","opentime" : " 07:00～24:00<BR>金・土・祝前日 07:00～翌01:00","holiday" : "{}","search_time" : ["{}" ],"search_holiday" : { "days" :  "{}" , "month" :  "{}" },"access_line" : "北陸鉄道石川線","access_station" : "馬替駅","access_walk" : 11,"budget" : 0,"category_names" : ["ケーキ屋・スイーツ"]},{"id" : "5159252","name" : "おいしい魚菜と炙り 辻屋商店 ","name_kana" : "オイシイサカナトアブリツジヤショウテン","latitude" : 36.529561,"longitude" : 136.641881,"address" : "〒921-8177 石川県金沢市伏見台1-13-21 ","tel" : "076-280-0099 ","opentime" : "火～土 昼の部：11:30～14:00<BR>火～土 居酒屋タイム：17:30～24:00(L.O.23:30)<BR>日・祝日 居酒屋タイム：17:30～24:00","holiday" : "毎週月曜日","search_time" : ["2&3,10-00,17-00" ],"search_holiday" : { "days" :  "{}" , "month" :  "{}" },"access_line" : "北陸鉄道石川線","access_station" : "野々市工大前駅","access_walk" : 22,"budget" : 0,"category_names" : ["居酒屋"]},{"id" : "5372183","name" : "ごんべえ ","name_kana" : "ゴンベエ","latitude" : 36.522325,"longitude" : 136.636633,"address" : "〒921-8162 石川県金沢市三馬1-46 ","tel" : "076-242-4141 ","opentime" : "{}","holiday" : "{}","search_time" : ["{}" ],"search_holiday" : { "days" :  "{}" , "month" :  "{}" },"access_line" : "北陸鉄道石川線","access_station" : "馬替駅","access_walk" : 18,"budget" : 0,"category_names" : ["寿司"]},{"id" : "5219581","name" : "焼肉処習志野 ","name_kana" : "ヤキニクドコロナラシノ","latitude" : 36.526678,"longitude" : 136.640917,"address" : "〒921-8151 石川県金沢市窪7-263 ","tel" : "076-247-1927 ","opentime" : "{}","holiday" : "{}","search_time" : ["{}" ],"search_holiday" : { "days" :  "{}" , "month" :  "{}" },"access_line" : "北陸鉄道石川線","access_station" : "野々市工大前駅","access_walk" : 21,"budget" : 0,"category_names" : ["焼肉"]},{"id" : "6275085","name" : "居酒屋ぽんぽこりん ","name_kana" : "イザカヤポンポコリン","latitude" : 36.526678,"longitude" : 136.640917,"address" : "〒921-8151 石川県金沢市窪7-263 ","tel" : "076-241-0240 ","opentime" : "{}","holiday" : "{}","search_time" : ["{}" ],"search_holiday" : { "days" :  "{}" , "month" :  "{}" },"access_line" : "北陸鉄道石川線","access_station" : "野々市工大前駅","access_walk" : 21,"budget" : 0,"category_names" : ["居酒屋"]},{"id" : "6368857","name" : "ぎゅうばか 金沢横川店 ","name_kana" : "ギュウバカカナザワヨコガワテン","latitude" : 36.541644,"longitude" : 136.631750,"address" : "〒921-8044 石川県金沢市米泉町1-65 ","tel" : "076-242-1529 ","opentime" : "月～金 居酒屋タイム：17:00～24:00(L.O.23:30)<BR>土・日・祝日 居酒屋タイム：16:00～24:00(L.O.23:30)","holiday" : "年中無休","search_time" : ["2&4&5&6&7,18-00,25-00","1,17-00,25-00" ],"search_holiday" : { "days" :  "{}" , "month" :  "{}" },"access_line" : "北陸鉄道石川線","access_station" : "押野駅","access_walk" : 9,"budget" : 0,"category_names" : ["焼肉"]},{"id" : "5448667","name" : "ミスタードーナツ 野々市 ","name_kana" : "ミスタードーナツノノイチ","latitude" : 36.529958,"longitude" : 136.614867,"address" : "〒921-8815 石川県野々市市本町4-6-20 ","tel" : "076-246-5566 ","opentime" : "月～日・祝日 07:00～23:00","holiday" : "{}","search_time" : ["1&3&4&5&6&7,10-00,19-00" ],"search_holiday" : { "days" :  "{}" , "month" :  "{}" },"access_line" : "北陸鉄道石川線","access_station" : "野々市（北陸鉄道）駅","access_walk" : 12,"budget" : 0,"category_names" : ["ケーキ屋・スイーツ"]},{"id" : "6171780","name" : "中華そば 秋生 ","name_kana" : "チュウカソバシュウセイ","latitude" : 36.541753,"longitude" : 136.631267,"address" : "〒921-8044 石川県金沢市米泉町1-64 ","tel" : "076-227-8208 ","opentime" : "{}","holiday" : "{}","search_time" : ["1&2&3&4&5&6&7,11-30,14-30","1&2&3&4&5&6&7,17-30,22-30" ],"search_holiday" : { "days" :  "{}" , "month" :  "{}" },"access_line" : "北陸鉄道石川線","access_station" : "押野駅","access_walk" : 11,"budget" : 0,"category_names" : ["ラーメン"]},{"id" : "r770800","name" : "居酒屋 よし壱 ","name_kana" : "イザカヤヨシイチ","latitude" : 36.541994,"longitude" : 136.629092,"address" : "〒921-8044 石川県金沢市米泉町1-30","tel" : "050-3461-4996 ","opentime" : " 18:00～翌3:00(L.O.2:00)<BR>日 18:00～翌2:00(L.O.1:00)","holiday" : "毎週火・水曜日<BR>年末年始（2017年12月31日～2018年1月4日）<BR>※12月は休まず営業いたします<BR>※12月30日まで休まず営業！","search_time" : ["{}" ],"search_holiday" : { "days" :  "{}" , "month" :  "{}" },"access_line" : "ＪＲ北陸本線","access_station" : "西金沢駅","access_walk" : 5,"budget" : 4000,"category_names" : ["居酒屋"]},{"id" : "5906113","name" : "金沢焼肉蔵 伏見台店 ","name_kana" : "カナザワヤキニククラフシミダイテン","latitude" : 36.529800,"longitude" : 136.642022,"address" : "〒921-8177 石川県金沢市伏見台1-13-5 ","tel" : "076-241-3438 ","opentime" : " 11:00～24:00(L.O.23:30)","holiday" : "年中無休","search_time" : ["1&2&3&4&5&6&7,11-00,15-00","1&2&3&4&5&6&7,17-00,24-00" ],"search_holiday" : { "days" :  "{}" , "month" :  "{}" },"access_line" : "北陸鉄道石川線","access_station" : "野々市工大前駅","access_walk" : 22,"budget" : 0,"category_names" : ["焼肉"]},{"id" : "6077993","name" : "Chez Pause ","name_kana" : "シェポーズ","latitude" : 36.528744,"longitude" : 136.641811,"address" : "〒921-8151 石川県金沢市窪7-364 ニシオビル伏見台バーデンコート1F","tel" : "076-241-1227 ","opentime" : "{}","holiday" : "{}","search_time" : ["{}" ],"search_holiday" : { "days" :  "{}" , "month" :  "{}" },"access_line" : "北陸鉄道石川線","access_station" : "野々市工大前駅","access_walk" : 22,"budget" : 0,"category_names" : ["フレンチ(フランス料理)"]},{"id" : "5219554","name" : "ひで華 窪店","name_kana" : "ヒデカ クボテン","latitude" : 36.528706,"longitude" : 136.641806,"address" : "〒921-8151 石川県金沢市窪7-364 西尾ビル","tel" : "076-244-5213 ","opentime" : "月～日 ディナー：17:00～23:00(L.O.23:00)","holiday" : "不定休日あり","search_time" : ["{}" ],"search_holiday" : { "days" :  "{}" , "month" :  "{}" },"access_line" : "ＪＲ北陸本線","access_station" : "金沢駅","access_walk" : 30,"budget" : 3500,"category_names" : ["焼肉", "ワイン"]},{"id" : "7192175","name" : "spice curry cafe KOTTA ","name_kana" : "スパイスカレーカフェコッタ","latitude" : 36.534344,"longitude" : 136.615389,"address" : "〒921-8816 石川県野々市市若松町2-53 ","tel" : "076-272-8319 ","opentime" : "{}","holiday" : "{}","search_time" : ["1&2&3&5&6&7,11-30,14-30" ],"search_holiday" : { "days" :  "{}" , "month" :  "3,2" },"access_line" : "北陸鉄道石川線","access_station" : "野々市（北陸鉄道）駅","access_walk" : 12,"budget" : 0,"category_names" : ["インドカレー"]},{"id" : "6299841","name" : "豚炭一丁 ","name_kana" : "トンタンイッチョウ","latitude" : 36.529927,"longitude" : 136.642056,"address" : "〒921-8177 石川県金沢市伏見台1-193 ","tel" : "076-227-8901 ","opentime" : "{}","holiday" : "{}","search_time" : ["2&3&4&5&6&7,17-30,23-00" ],"search_holiday" : { "days" :  "{}" , "month" :  "{}" },"access_line" : "{}","access_station" : "{}","access_walk" : {},"budget" : 2000,"category_names" : ["居酒屋", "和食 その他"]},{"id" : "5904082","name" : "ビストロレガル ","name_kana" : "ビストロレガル","latitude" : 36.527494,"longitude" : 136.641444,"address" : "〒921-8151 石川県金沢市窪7-279 ","tel" : "076-244-5559 ","opentime" : " 11:30～14:30(L.O.14:30)(祝日の場合は営業)、17:30～22:00(L.O.22:00)","holiday" : "{}","search_time" : ["{}" ],"search_holiday" : { "days" :  "{}" , "month" :  "{}" },"access_line" : "北陸鉄道石川線","access_station" : "野々市工大前駅","access_walk" : 22,"budget" : 0,"category_names" : ["ビストロ"]},{"id" : "r827000","name" : "インド・ネパール レストラン DEVi（デビ） ","name_kana" : "インドネパールレストランデビ","latitude" : 36.527569,"longitude" : 136.641494,"address" : "〒921-8151 石川県金沢市窪7-279","tel" : "050-3374-5771 ","opentime" : "月～日 ランチ：11:00～15:00(L.O.14:45)<BR>月～日 ディナー：17:00～22:00(L.O.21:45)","holiday" : "不定休日あり","search_time" : ["{}" ],"search_holiday" : { "days" :  "{}" , "month" :  "{}" },"access_line" : "北陸鉄道石川線","access_station" : "野々市工大前駅","access_walk" : 8,"budget" : 1000,"category_names" : ["インドカレー", "アジア・エスニック料理 その他"]},{"id" : "6056914","name" : "玉かづら ","name_kana" : "マカヅラ","latitude" : 36.521353,"longitude" : 136.621664,"address" : "〒921-8141 石川県金沢市馬替3-8 ","tel" : "076-296-2570 ","opentime" : "{}","holiday" : "{}","search_time" : ["{}" ],"search_holiday" : { "days" :  "{}" , "month" :  "{}" },"access_line" : "北陸鉄道石川線","access_station" : "馬替駅","access_walk" : 3,"budget" : 0,"category_names" : ["鶏料理(鳥料理)"]},{"id" : "5751600","name" : "ちゃくら（梵） ","name_kana" : "チャクラ","latitude" : 36.527197,"longitude" : 136.641472,"address" : "〒921-8151 石川県金沢市窪7-281 ","tel" : "076-247-2355 ","opentime" : "{}","holiday" : "{}","search_time" : ["{}" ],"search_holiday" : { "days" :  "{}" , "month" :  "{}" },"access_line" : "北陸鉄道石川線","access_station" : "野々市工大前駅","access_walk" : 23,"budget" : 0,"category_names" : ["居酒屋"]},{"id" : "3108175","name" : "Kaga Noto Zawatalian La Foresta ","name_kana" : "カガノトザワタリアンラフォレスタ","latitude" : 36.541514,"longitude" : 136.633289,"address" : "〒921-8043 石川県金沢市西泉1-66-12 ","tel" : "076-244-6610 ","opentime" : "月・火・木～日 ランチ・カフェ：11:00～14:30(L.O.14:30)<BR>月・火・木～日 ディナー・バー：18:00～22:00(L.O.22:00)(※ランチ・ディナーともに閉店のお時間は日によってまちまちの為、詳しくはお問い合わせください)","holiday" : "毎週水曜日<BR>年末年始（2015年12月30日～2016年1月4日）<BR>※※祝日・祝前日・貸切の場合は営業いたします","search_time" : ["1&2&3&4&5&6&7,11-00,15-00","1&2&3&4&5&6&7,17-00,22-00" ],"search_holiday" : { "days" :  "{}" , "month" :  "{}" },"access_line" : "{}","access_station" : "{}","access_walk" : {},"budget" : 3000,"category_names" : ["イタリアン(イタリア料理)"]},{"id" : "5289709","name" : "藤七 有松店 ","name_kana" : "トウシチアリマツテン","latitude" : 36.536678,"longitude" : 136.640711,"address" : "〒921-8161 石川県金沢市有松5-8-18 ","tel" : "076-241-5067 ","opentime" : "{}","holiday" : "{}","search_time" : ["{}" ],"search_holiday" : { "days" :  "{}" , "month" :  "{}" },"access_line" : "北陸鉄道石川線","access_station" : "押野駅","access_walk" : 22,"budget" : 0,"category_names" : ["うどん"]},{"id" : "r626709","name" : "自然百菜 野ふうど 高尾庵","name_kana" : "シゼンヒャクサイノフウド タカオアン","latitude" : 36.520981,"longitude" : 136.635108,"address" : "〒921-8155 石川県金沢市高尾台2-95","tel" : "050-3462-5024 ","opentime" : "月～日 ランチ：11:00～16:00<BR>月～日 ディナー：17:30～22:30","holiday" : "年中無休","search_time" : ["1&2&4&5&6&7,11-30,22-00" ],"search_holiday" : { "days" :  "{}" , "month" :  "{}" },"access_line" : "北陸鉄道石川線","access_station" : "馬替駅","access_walk" : 5,"budget" : 2270,"category_names" : ["バイキング・ビュッフェ", "居酒屋"]},{"id" : "6840639","name" : "焼肉 和まる ","name_kana" : "カズマル","latitude" : 36.533203,"longitude" : 136.614489,"address" : "〒921-8816 石川県野々市市若松町13-18 ","tel" : "076-294-3729 ","opentime" : " 17:00～23:00","holiday" : "{}","search_time" : ["{}" ],"search_holiday" : { "days" :  "{}" , "month" :  "{}" },"access_line" : "北陸鉄道石川線","access_station" : "野々市（北陸鉄道）駅","access_walk" : 12,"budget" : 0,"category_names" : ["焼肉"]},{"id" : "r696559","name" : "すき家 金沢寺地店","name_kana" : "スキヤ カナザワテラジテン","latitude" : 36.532511,"longitude" : 136.642578,"address" : "〒921-8178 石川県金沢市寺地1-32-28","tel" : "0120-498-007 ","opentime" : " 24時間営業","holiday" : "無","search_time" : ["{}" ],"search_holiday" : { "days" :  "{}" , "month" :  "{}" },"access_line" : "北陸鉄道石川線","access_station" : "野々市工大前駅","access_walk" : 10,"budget" : 570,"category_names" : ["牛丼", "丼物"]},{"id" : "5100301","name" : "イレブンポイント ","name_kana" : "イレブンポイント","latitude" : 36.532606,"longitude" : 136.614278,"address" : "〒921-8816 石川県野々市市若松町14-15 ","tel" : "076-248-3456 ","opentime" : "{}","holiday" : "{}","search_time" : ["1&2&3&5&6&7,17-30,23-00" ],"search_holiday" : { "days" :  "{}" , "month" :  "{}" },"access_line" : "北陸鉄道石川線","access_station" : "野々市（北陸鉄道）駅","access_walk" : 12,"budget" : 0,"category_names" : ["カフェ"]},{"id" : "r194017","name" : "サブウェイ 野々市若松店","name_kana" : "サブウェイ ノノイチワカマツテン","latitude" : 36.530586,"longitude" : 136.614100,"address" : "〒921-8816 石川県野々市市若松町21-2 ブックオフ野々市若松店内","tel" : "076-256-3214 ","opentime" : " 10:00～20:00","holiday" : "無","search_time" : ["{}" ],"search_holiday" : { "days" :  "{}" , "month" :  "{}" },"access_line" : "ＪＲ北陸本線","access_station" : "野々市駅","access_walk" : 8,"budget" : 600,"category_names" : ["ファーストフード", "パン屋・サンドイッチ"]},{"id" : "7110035","name" : "味彩 温 ","name_kana" : "アジサイツツム","latitude" : 36.520536,"longitude" : 136.634494,"address" : "〒921-8155 石川県金沢市高尾台2-225 ","tel" : "076-259-1355 ","opentime" : " (18:00～22:30(L.O.))","holiday" : "不定休日あり","search_time" : ["{}" ],"search_holiday" : { "days" :  "{}" , "month" :  "{}" },"access_line" : "北陸鉄道石川線","access_station" : "馬替駅","access_walk" : 15,"budget" : 0,"category_names" : ["小料理"]},{"id" : "5039210","name" : "めんどんとんこう ","name_kana" : "メンドントンコウ","latitude" : 36.541186,"longitude" : 136.621508,"address" : "〒921-8802 石川県野々市市押野6-172 ","tel" : "076-248-4856 ","opentime" : "月・火・木・金 昼の部：11:00～14:30<BR>土・日・祝日 昼の部：11:00～15:00<BR>月・火・木～日 夜の部：17:00～22:00","holiday" : "毎週水曜日","search_time" : ["1&2&3&4&5&6&7,10-00,22-00" ],"search_holiday" : { "days" :  "{}" , "month" :  "{}" },"access_line" : "{}","access_station" : "{}","access_walk" : {},"budget" : 850,"category_names" : ["ラーメン・麺料理 その他"]},{"id" : "6400119","name" : "甘味処 和味 有松店 ","name_kana" : "カンミドコロワミアリマツテン","latitude" : 36.536772,"longitude" : 136.640986,"address" : "〒921-8161 石川県金沢市有松5-8-22 有松 三軒家 内","tel" : "076-255-7100 ","opentime" : "{}","holiday" : "年中無休","search_time" : ["1&2&3&5&6&7,11-00,14-30","1&2&3&5&6&7,18-00,20-30" ],"search_holiday" : { "days" :  "{}" , "month" :  "{}" },"access_line" : "北陸鉄道石川線","access_station" : "押野駅","access_walk" : 22,"budget" : 0,"category_names" : ["甘味処"]},{"id" : "5338878","name" : "AKIKO ","name_kana" : "アキコ","latitude" : 36.520661,"longitude" : 136.621661,"address" : "〒921-8141 石川県金沢市馬替3-57-1 ","tel" : "076-298-5868 ","opentime" : "{}","holiday" : "{}","search_time" : ["1&2&3&4&5&6&7,11-00,22-30" ],"search_holiday" : { "days" :  "{}" , "month" :  "{}" },"access_line" : "北陸鉄道石川線","access_station" : "馬替駅","access_walk" : 2,"budget" : 0,"category_names" : ["洋食屋"]},{"id" : "5372243","name" : "太鼓寿司 高尾台店 ","name_kana" : "タイコズシタカオダイテン","latitude" : 36.519500,"longitude" : 136.631342,"address" : "〒921-8155 石川県金沢市高尾台2-146 ","tel" : "076-298-5775 ","opentime" : "{}","holiday" : "{}","search_time" : ["{}" ],"search_holiday" : { "days" :  "{}" , "month" :  "{}" },"access_line" : "北陸鉄道石川線","access_station" : "馬替駅","access_walk" : 10,"budget" : 0,"category_names" : ["寿司"]},{"id" : "5085926","name" : "ぼん ","name_kana" : "ボン","latitude" : 36.526536,"longitude" : 136.642036,"address" : "〒921-8151 石川県金沢市窪7-290 ","tel" : "076-243-4410 ","opentime" : "{}","holiday" : "{}","search_time" : ["{}" ],"search_holiday" : { "days" :  "{}" , "month" :  "{}" },"access_line" : "北陸鉄道石川線","access_station" : "野々市工大前駅","access_walk" : 22,"budget" : 0,"category_names" : ["お好み焼き"]},{"id" : "6340653","name" : "生わらび餅本舗　甘味茶屋　小梅 ","name_kana" : "ナマワラビモチホンポカンミチャヤコウメ","latitude" : 36.531736,"longitude" : 136.643119,"address" : "〒921-8178 石川県金沢市寺地1-31-11 プラース寺地1F","tel" : "076-244-8122 ","opentime" : "月・火・木～日・祝前日・祝日 11:00～16:00(※甘味・ドリンク・テイクアウト)<BR>月・火・木～日 ランチ：11:00～15:00(L.O.15:00)","holiday" : "毎週水曜日","search_time" : ["{}" ],"search_holiday" : { "days" :  "{}" , "month" :  "{}" },"access_line" : "ＪＲ","access_station" : "金沢駅","access_walk" : 15,"budget" : 750,"category_names" : ["甘味処", "オムレツ・オムライス"]},{"id" : "r769500","name" : "リス クレープシュクレ ","name_kana" : "リスクレープシュクレ","latitude" : 36.525011,"longitude" : 136.641222,"address" : "〒921-8151 石川県金沢市窪5-571","tel" : "050-3461-4535 ","opentime" : " 14:00～20:00","holiday" : "毎週月・火曜日<BR>※※祝日は営業","search_time" : ["{}" ],"search_holiday" : { "days" :  "{}" , "month" :  "{}" },"access_line" : "ＪＲ北陸本線","access_station" : "金沢駅","access_walk" : 25,"budget" : 800,"category_names" : ["カフェ", "クレープ"]},{"id" : "r685304","name" : "The TRUNK VEGGEE＆MEAT ","name_kana" : "ザトランクベジアンドミート","latitude" : 36.524947,"longitude" : 136.641208,"address" : "〒921-8151 石川県金沢市窪5-571","tel" : "050-3468-6501 ","opentime" : "月・水～日・祝前日・祝日 ランチ：11:30～15:00(L.O.14:30)<BR>月・水・木・日・祝日 ディナー：18:00～22:00(L.O.21:30)<BR>金・土・祝前日 ディナー：18:00～23:00(L.O.22:30)","holiday" : "毎週火曜日<BR>※月一回不定休","search_time" : ["{}" ],"search_holiday" : { "days" :  "{}" , "month" :  "{}" },"access_line" : "ＪＲ北陸本線","access_station" : "金沢駅","access_walk" : 23,"budget" : 3000,"category_names" : ["居酒屋", "ビストロ"]},{"id" : "5858793","name" : "ふくろう ","name_kana" : "フクロウ","latitude" : 36.541122,"longitude" : 136.636533,"address" : "〒921-8164 石川県金沢市久安6-185-1 ","tel" : "076-226-0787 ","opentime" : "{}","holiday" : "{}","search_time" : ["2&3&4&5&6&7,11-00,26-00" ],"search_holiday" : { "days" :  "{}" , "month" :  "{}" },"access_line" : "北陸鉄道石川線","access_station" : "押野駅","access_walk" : 14,"budget" : 0,"category_names" : ["カフェ"]},{"id" : "5114443","name" : "スペースクリエイト 自遊空間 野々市店 ","name_kana" : "スペースクリエイトジユウクウカンノノイチテン","latitude" : 36.529756,"longitude" : 136.613314,"address" : "〒921-8815 石川県野々市市本町5-1-55 ","tel" : "076-248-4819 ","opentime" : "{}","holiday" : "{}","search_time" : ["{}" ],"search_holiday" : { "days" :  "{}" , "month" :  "{}" },"access_line" : "北陸鉄道石川線","access_station" : "野々市（北陸鉄道）駅","access_walk" : 14,"budget" : 0,"category_names" : ["インターネットカフェ"]},{"id" : "r762201","name" : "のんべ のの市店","name_kana" : "ノンベ ノノイチテン","latitude" : 36.531030,"longitude" : 136.613219,"address" : "〒921-8815 石川県野々市市本町6-377-2","tel" : "050-3460-9700 ","opentime" : "火～日・祝前日・祝日 17:00～24:00(L.O.23:00、ドリンクL.O.23:30)(昼営業（慶事・法事の際にはご相談ください）)","holiday" : "毎週月曜日<BR>※（月曜日は宴会のみ応相談、祝日・祝前日は営業）  年末年始のお休みは12月31日から1月2日まで。","search_time" : ["{}" ],"search_holiday" : { "days" :  "{}" , "month" :  "{}" },"access_line" : "ＪＲ北陸本線","access_station" : "野々市駅","access_walk" : 7,"budget" : 2800,"category_names" : ["居酒屋", "刺身・海鮮料理"]},{"id" : "r212804","name" : "ゆず庵 金沢有松店","name_kana" : "ユズアン カナザワアリマツテン","latitude" : 36.537169,"longitude" : 136.641614,"address" : "〒921-8161 石川県金沢市有松4-3-8","tel" : "050-3467-2535 ","opentime" : "月～日 11:00～24:00(L.O.22:20)(【年末年始の営業時間について】  12/25（月）～12/30（土）11：00～24：00、12/31（日）11：00～22：00、1/1（祝）16：00～23：00、1/2（火）～1/8（祝）11：00～24：00 ※1/9（火）～通常営業     ※12/29～1/8はお膳ランチの提供はございません。1/1～1/3は食べ放題ランチの提供はございません。)","holiday" : "年中無休","search_time" : ["1&2&3&4&5&6&7,07-30,24-00" ],"search_holiday" : { "days" :  "{}" , "month" :  "{}" },"access_line" : "ＪＲ北陸本線","access_station" : "金沢駅","access_walk" : 15,"budget" : 3000,"category_names" : ["すし・魚料理 その他", "しゃぶしゃぶ"]},{"id" : "5547561","name" : "大判小判 ","name_kana" : "オオバンコバン","latitude" : 36.529028,"longitude" : 136.643511,"address" : "〒921-8177 石川県金沢市伏見台1-6-13 ","tel" : "076-280-0808 ","opentime" : "{}","holiday" : "{}","search_time" : ["1&2&5&6&7,10-00,19-00","5,10-00,17-00" ],"search_holiday" : { "days" :  "{}" , "month" :  "3,3" },"access_line" : "北陸鉄道石川線","access_station" : "野々市工大前駅","access_walk" : 26,"budget" : 0,"category_names" : ["お好み焼き"]},{"id" : "5100272","name" : "JO－HOUSE 高尾台","name_kana" : "ジョーハウス タカオダイ","latitude" : 36.520886,"longitude" : 136.637097,"address" : "〒921-8155 石川県金沢市高尾台1-111 ","tel" : "076-296-0245 ","opentime" : " 11:00～17:00(※日曜日は15：00まで)","holiday" : "毎週木曜日","search_time" : ["{}" ],"search_holiday" : { "days" :  "{}" , "month" :  "{}" },"access_line" : "ＪＲ","access_station" : "金沢駅","access_walk" : 20,"budget" : 1100,"category_names" : ["ビストロ", "カレー その他"]},{"id" : "6377333","name" : "鳥えもん ","name_kana" : "トリエモン","latitude" : 36.543042,"longitude" : 136.633042,"address" : "〒921-8043 石川県金沢市西泉3-4 西田ビル1F","tel" : "076-244-7088 ","opentime" : "月～日 ディナー：17:00～翌3:00(L.O.2:30)","holiday" : "無","search_time" : ["{}" ],"search_holiday" : { "days" :  "{}" , "month" :  "{}" },"access_line" : "ＪＲ","access_station" : "西金沢駅","access_walk" : 10,"budget" : 2000,"category_names" : ["居酒屋", "焼き鳥・肉料理・串料理 その他"]},{"id" : "r042363","name" : "魚民 イオンタウン野々市店","name_kana" : "ウオタミ イオンタウンノノイチテン","latitude" : 36.523922,"longitude" : 136.615506,"address" : "〒921-8821 石川県野々市市白山町4-1 イオンタウン野々市1F","tel" : "076-246-4788 ","opentime" : "月～木・日・祝日 17:00～翌1:00<BR>金・土・祝前日 17:00～翌3:00","holiday" : "無","search_time" : ["{}" ],"search_holiday" : { "days" :  "{}" , "month" :  "{}" },"access_line" : "北陸鉄道石川線","access_station" : "馬替駅","access_walk" : 12,"budget" : 2700,"category_names" : ["居酒屋", "焼き鳥"]},{"id" : "6614595","name" : "豚炭一丁 押野店 ","name_kana" : "トンタンイッチョウオシノテン","latitude" : 36.542794,"longitude" : 136.622728,"address" : "〒921-8802 石川県金沢市押野1-510 ","tel" : "076-227-8903 ","opentime" : " 17:00～翌03:00(L.O.02:30)<BR>月～日・祝日・祝前日 居酒屋タイム：17:00～翌03:00(L.O.03:00)","holiday" : "年中無休","search_time" : ["{}" ],"search_holiday" : { "days" :  "{}" , "month" :  "{}" },"access_line" : "北陸鉄道石川線","access_station" : "押野駅","access_walk" : 7,"budget" : 0,"category_names" : ["居酒屋"]},{"id" : "6056380","name" : "とりあえず吾平 石川野々市押野店 ","name_kana" : "トリアエズゴヘイオシノテン","latitude" : 36.542594,"longitude" : 136.622100,"address" : "〒921-8802 石川県野々市市押野6-110 ","tel" : "076-294-1533 ","opentime" : "月～日・祝日 17:00～翌02:00","holiday" : "年中無休","search_time" : ["{}" ],"search_holiday" : { "days" :  "{}" , "month" :  "{}" },"access_line" : "北陸鉄道石川線","access_station" : "押野駅","access_walk" : 7,"budget" : 0,"category_names" : ["居酒屋"]},{"id" : "5611507","name" : "万来 ","name_kana" : "マンライ","latitude" : 36.543672,"longitude" : 136.629128,"address" : "〒921-8044 石川県金沢市米泉町4-43-8 ","tel" : "076-243-7425 ","opentime" : "{}","holiday" : "{}","search_time" : ["1&2&3&4&5&6&7,11-00,24-00" ],"search_holiday" : { "days" :  "{}" , "month" :  "{}" },"access_line" : "北陸鉄道石川線","access_station" : "押野駅","access_walk" : 10,"budget" : 0,"category_names" : ["ラーメン"]},{"id" : "5529821","name" : "ジョイハウス ","name_kana" : "ジョイハウス","latitude" : 36.529725,"longitude" : 136.612767,"address" : "〒921-8815 石川県野々市市本町5-1-17 ","tel" : "076-248-1360 ","opentime" : "{}","holiday" : "毎週火曜日","search_time" : ["{}" ],"search_holiday" : { "days" :  "{}" , "month" :  "{}" },"access_line" : "北陸鉄道石川線","access_station" : "野々市（北陸鉄道）駅","access_walk" : 14,"budget" : 0,"category_names" : ["洋食屋"]},{"id" : "r691500","name" : "大戸屋 ごはん処 野々市店","name_kana" : "オオトヤゴハンドコロ ノノイチテン","latitude" : 36.529517,"longitude" : 136.612781,"address" : "〒921-8815 石川県野々市市本町5-1-14","tel" : "076-248-2481 ","opentime" : " 11:00～23:00(L.O.22:30)","holiday" : "無","search_time" : ["1&2&3&4&5,18-00,27-00" ],"search_holiday" : { "days" :  "{}" , "month" :  "3,4" },"access_line" : "北陸鉄道石川線","access_station" : "野々市工大前駅","access_walk" : 14,"budget" : 820,"category_names" : ["定食・食事処", "シーフード料理"]},{"id" : "r178079","name" : "マクドナルド 野々市店","name_kana" : "マクドナルド ノノイチテン","latitude" : 36.530233,"longitude" : 136.612694,"address" : "〒921-8815 石川県野々市市本町6-24-10","tel" : "076-294-1478 ","opentime" : " 24時間営業、5:00～10:30((朝マック))","holiday" : "無","search_time" : ["{}" ],"search_holiday" : { "days" :  "{}" , "month" :  "{}" },"access_line" : "ＪＲ北陸本線","access_station" : "野々市駅","access_walk" : 16,"budget" : 500,"category_names" : ["ファーストフード", "ハンバーガー"]},{"id" : "r188606","name" : "はなまるうどん 金沢高尾台店","name_kana" : "ハナマルウドン カナザワタカオダイテン","latitude" : 36.518431,"longitude" : 136.630281,"address" : "〒921-8155 石川県金沢市高尾台4-126","tel" : "076-296-2870 ","opentime" : " 10:00～23:00","holiday" : "年中無休<BR>※年末年始等は店舗へお問い合わせください","search_time" : ["1&2&4&5&6&7,21-00,27-00" ],"search_holiday" : { "days" :  "{}" , "month" :  "{}" },"access_line" : "北陸鉄道石川線","access_station" : "馬替駅","access_walk" : 9,"budget" : 500,"category_names" : ["ファーストフード", "讃岐うどん"]},{"id" : "r716700","name" : "海天すし 野々市店","name_kana" : "カイテンスシ ノノイチテン","latitude" : 36.536992,"longitude" : 136.614378,"address" : "〒921-8803 石川県野々市市押越1-501","tel" : "050-3477-1095 ","opentime" : "月～日 11:00～21:30(L.O.21:00)","holiday" : "無","search_time" : ["1&2&3&4&5&6&7,11-00,24-00" ],"search_holiday" : { "days" :  "{}" , "month" :  "{}" },"access_line" : "ＪＲ北陸本線","access_station" : "野々市駅","access_walk" : 5,"budget" : 2300,"category_names" : ["回転寿司", "寿司"]},{"id" : "6118716","name" : "ステーキ宮 金沢有松店 ","name_kana" : "ステーキミヤカナザワアリマツテン","latitude" : 36.536625,"longitude" : 136.642742,"address" : "〒921-8161 石川県金沢市有松3-6-28 ","tel" : "076-247-1323 ","opentime" : " 11:00～16:00、16:00～23:00(L.O.22:30)","holiday" : "年中無休","search_time" : ["{}" ],"search_holiday" : { "days" :  "{}" , "month" :  "{}" },"access_line" : "北陸鉄道石川線","access_station" : "野町駅","access_walk" : 23,"budget" : 0,"category_names" : ["ステーキ"]},{"id" : "6544845","name" : "今伴フード＆ドリンク ","name_kana" : "イマハンフードアンドドリンク","latitude" : 36.541136,"longitude" : 136.638286,"address" : "〒921-8161 石川県金沢市有松2-15-3 ","tel" : "076-242-3210 ","opentime" : "{}","holiday" : "{}","search_time" : ["2&3&4&5&6&7,11-00,25-00","1,11-00,23-00" ],"search_holiday" : { "days" :  "{}" , "month" :  "{}" },"access_line" : "北陸鉄道石川線","access_station" : "西泉駅","access_walk" : 15,"budget" : 0,"category_names" : ["居酒屋"]},{"id" : "5159340","name" : "誉や ","name_kana" : "ホマレヤ","latitude" : 36.526269,"longitude" : 136.643294,"address" : "〒921-8151 石川県金沢市窪6-235-1 ","tel" : "076-245-0012 ","opentime" : "{}","holiday" : "{}","search_time" : ["{}" ],"search_holiday" : { "days" :  "{}" , "month" :  "{}" },"access_line" : "北陸鉄道石川線","access_station" : "野々市工大前駅","access_walk" : 23,"budget" : 0,"category_names" : ["居酒屋"]},{"id" : "6349271","name" : "古川 有松店","name_kana" : "フルカワ アリマツテン","latitude" : 36.537150,"longitude" : 136.642775,"address" : "〒921-8161 石川県金沢市有松3-3-23 ","tel" : "076-280-6367 ","opentime" : " ランチ・ディナー：11:00～24:00(L.O.23:00)","holiday" : "年中無休","search_time" : ["1&3&4&5&6&7,18-00,29-00" ],"search_holiday" : { "days" :  "{}" , "month" :  "{}" },"access_line" : "ＪＲ北陸本線","access_station" : "金沢駅","access_walk" : 15,"budget" : 1000,"category_names" : ["お好み焼き", "ビール"]},{"id" : "5676773","name" : "福座 ","name_kana" : "フクゾ","latitude" : 36.538111,"longitude" : 136.642094,"address" : "〒921-8161 石川県金沢市有松4-1-1 ","tel" : "076-243-2930 ","opentime" : "火～日 ランチ：11:30～14:30<BR>火～日 ディナー：17:30～21:00","holiday" : "毎週月曜日<BR>※（月一回程度）※月曜が祭日の場合は営業。翌日、火曜がふりかえで休み。","search_time" : ["1&3&4&5&6&7,11-30,14-00","3&4&5&6&7&1,18-00,21-00" ],"search_holiday" : { "days" :  "{}" , "month" :  "{}" },"access_line" : "北陸鉄道石川線","access_station" : "野町駅","access_walk" : 8,"budget" : 800,"category_names" : ["ラーメン・麺料理 その他"]},{"id" : "5219468","name" : "かわだ ","name_kana" : "カワダ","latitude" : 36.544092,"longitude" : 136.629122,"address" : "〒921-8044 石川県金沢市米泉町4-46-3 ","tel" : "076-244-5609 ","opentime" : "{}","holiday" : "{}","search_time" : ["{}" ],"search_holiday" : { "days" :  "{}" , "month" :  "{}" },"access_line" : "北陸鉄道石川線","access_station" : "押野駅","access_walk" : 10,"budget" : 0,"category_names" : ["焼肉"]},{"id" : "5502320","name" : "らーめん全日本 高尾台店 ","name_kana" : "ラーメンゼンニホンタカオダイテン","latitude" : 36.520964,"longitude" : 136.638867,"address" : "〒921-8155 石川県金沢市高尾台1-86 ","tel" : "076-296-1729 ","opentime" : "{}","holiday" : "{}","search_time" : ["{}" ],"search_holiday" : { "days" :  "{}" , "month" :  "{}" },"access_line" : "北陸鉄道石川線","access_station" : "馬替駅","access_walk" : 20,"budget" : 0,"category_names" : ["ラーメン"]},{"id" : "7517623","name" : "食ハウス嶋本 ","name_kana" : "ショクハウスシマモト","latitude" : 36.521567,"longitude" : 136.616939,"address" : "〒921-8822 石川県野々市市矢作3-128-3 ","tel" : "076-248-2509 ","opentime" : "{}","holiday" : "{}","search_time" : ["{}" ],"search_holiday" : { "days" :  "{}" , "month" :  "{}" },"access_line" : "北陸鉄道石川線","access_station" : "馬替駅","access_walk" : 9,"budget" : 0,"category_names" : ["定食・食事処"]},{"id" : "6395210","name" : "ゴーゴーカレー 金沢有松スタジアム ","name_kana" : "ゴーゴーカレーカナザワアリマツスタジアム","latitude" : 36.537617,"longitude" : 136.642742,"address" : "〒921-8161 石川県金沢市有松3-3-30 ","tel" : "076-242-1755 ","opentime" : " 10:55～24:55","holiday" : "年中無休","search_time" : ["{}" ],"search_holiday" : { "days" :  "{}" , "month" :  "{}" },"access_line" : "北陸鉄道石川線","access_station" : "野町駅","access_walk" : 21,"budget" : 0,"category_names" : ["カレーライス"]},{"id" : "3109228","name" : "印度料理の店 HotHouse 西泉店 ","name_kana" : "インドリョウリノミセホットハウスニシイズミテン","latitude" : 36.543625,"longitude" : 136.633828,"address" : "〒921-8043 石川県金沢市西泉2-27 ","tel" : "076-226-0755 ","opentime" : "{}","holiday" : "{}","search_time" : ["{}" ],"search_holiday" : { "days" :  "{}" , "month" :  "{}" },"access_line" : "北陸鉄道石川線","access_station" : "西泉駅","access_walk" : 11,"budget" : 0,"category_names" : ["インド料理"]},{"id" : "7268132","name" : "海鮮家族レストラン 陣笠 ","name_kana" : "カイセンカゾクレストランジンガサ","latitude" : 36.531903,"longitude" : 136.611886,"address" : "〒921-8815 石川県野々市市本町6-14-51 ","tel" : "076-248-5584 ","opentime" : "月～金 ディナー：17:00～22:00(L.O.21:30)<BR> ランチ：11:00～15:00(L.O.14:30)<BR>土・日 ディナー：16:30～22:00(L.O.21:30)","holiday" : "不定休日あり","search_time" : ["3&4&5&6,11-30,14-00","3&4&5&6&7&1,18-00,23-00" ],"search_holiday" : { "days" :  "{}" , "month" :  "{}" },"access_line" : "ＪＲ北陸本線","access_station" : "野々市駅","access_walk" : 5,"budget" : 2000,"category_names" : ["居酒屋", "寿司"]},{"id" : "r704317","name" : "丸亀製麺 金沢有松店","name_kana" : "マルガメセイメン カナザワアリマツテン","latitude" : 36.538439,"longitude" : 136.642267,"address" : "〒921-8161 石川県金沢市有松4-1-1","tel" : "076-243-2707 ","opentime" : " 11:00～22:00(L.O.21:30)","holiday" : "無","search_time" : ["{}" ],"search_holiday" : { "days" :  "{}" , "month" :  "{}" },"access_line" : "北陸鉄道石川線","access_station" : "野町駅","access_walk" : 19,"budget" : 610,"category_names" : ["讃岐うどん", "うどん"]},{"id" : "r683600","name" : "箸一 ","name_kana" : "ハシイチ","latitude" : 36.517669,"longitude" : 136.630047,"address" : "〒921-8155 石川県金沢市高尾台4-170 インプレス富樫1F","tel" : "050-3463-9294 ","opentime" : "火～日 18:00～翌2:00(L.O.1:30)","holiday" : "毎週月曜日<BR>年末年始（2017年12月29日～2017年12月31日）<BR>※※1月の営業については店舗までお問い合わせください。","search_time" : ["{}" ],"search_holiday" : { "days" :  "{}" , "month" :  "{}" },"access_line" : "北陸鉄道石川線","access_station" : "馬替駅","access_walk" : 11,"budget" : 3500,"category_names" : ["居酒屋", "郷土料理"]},{"id" : "5551827","name" : "鮮菜わかな ","name_kana" : "センサイワカナ","latitude" : 36.521269,"longitude" : 136.616917,"address" : "〒921-8822 石川県野々市市矢作3-127-6 ","tel" : "076-248-8550 ","opentime" : "{}","holiday" : "{}","search_time" : ["1&2&4&5&6&7,18-00,27-00" ],"search_holiday" : { "days" :  "{}" , "month" :  "{}" },"access_line" : "北陸鉄道石川線","access_station" : "馬替駅","access_walk" : 9,"budget" : 0,"category_names" : ["小料理"]},{"id" : "7236268","name" : "凪のいえ ","name_kana" : "ナギノイエ","latitude" : 36.525828,"longitude" : 136.643914,"address" : "〒921-8151 石川県金沢市窪6-257-1 ","tel" : "076-205-4100 ","opentime" : "{}","holiday" : "{}","search_time" : ["{}" ],"search_holiday" : { "days" :  "{}" , "month" :  "{}" },"access_line" : "北陸鉄道石川線","access_station" : "野々市工大前駅","access_walk" : 25,"budget" : 0,"category_names" : ["喫茶店・軽食"]},{"id" : "7094468","name" : "昌京苑 野々市店","name_kana" : "ショウキョウエン ノノイチテン","latitude" : 36.529639,"longitude" : 136.611708,"address" : "〒921-8815 石川県野々市市本町5-1-43 ","tel" : "076-248-7787 ","opentime" : " ディナー：17:00～23:00(L.O.22:30)","holiday" : "年中無休","search_time" : ["{}" ],"search_holiday" : { "days" :  "{}" , "month" :  "{}" },"access_line" : "ＪＲ北陸本線","access_station" : "野々市駅","access_walk" : 6,"budget" : 4000,"category_names" : ["焼肉", "サムギョプサル"]},{"id" : "r713101","name" : "デリカキッチン ","name_kana" : "デリカキッチン","latitude" : 36.526408,"longitude" : 136.612631,"address" : "〒921-8815 石川県野々市市本町5-124-1","tel" : "050-3461-7225 ","opentime" : " 11:00～21:00(L.O.20:30)","holiday" : "不定休日あり<BR>※※正月・お盆","search_time" : ["{}" ],"search_holiday" : { "days" :  "{}" , "month" :  "{}" },"access_line" : "ＪＲ北陸本線","access_station" : "野々市駅","access_walk" : 10,"budget" : 600,"category_names" : ["カフェ"]},{"id" : "r689000","name" : "居酒屋 こいこい ","name_kana" : "イザカヤコイコイ","latitude" : 36.525017,"longitude" : 136.613364,"address" : "〒921-8821 石川県野々市市白山町10-23","tel" : "050-3468-6735 ","opentime" : " 18:00～24:00(L.O.23:30)、11:30～15:00(L.O.14:30)","holiday" : "毎週月曜日<BR>※※月曜祝日の場合は翌日","search_time" : ["{}" ],"search_holiday" : { "days" :  "{}" , "month" :  "{}" },"access_line" : "ＪＲ北陸本線","access_station" : "野々市駅","access_walk" : 8,"budget" : 3500,"category_names" : ["居酒屋", "刺身・海鮮料理"]},{"id" : "5322266","name" : "旬彩もみじ屋 ","name_kana" : "シュンサイモミジヤ","latitude" : 36.525019,"longitude" : 136.613339,"address" : "〒921-8821 石川県野々市市白山町10-23 木野ビル1F","tel" : "076-294-3337 ","opentime" : " 11:30～14:30(L.O.14:00)、18:00～23:00(L.O.22:00)<BR>日・祝日 夜の部：17:30～22:00","holiday" : "毎週水曜日","search_time" : ["2&3&4&5&6&7,07-30,22-00" ],"search_holiday" : { "days" :  "12-29,12-30,12-31,01-01,01-02,01-03,01-04" , "month" :  "{}" },"access_line" : "北陸鉄道石川線","access_station" : "馬替駅","access_walk" : 16,"budget" : 0,"category_names" : ["創作和食"]},{"id" : "6395214","name" : "BOHEMIAN ","name_kana" : "ボヘミアン","latitude" : 36.525019,"longitude" : 136.613339,"address" : "〒921-8821 石川県野々市市白山町10-23 木野ビル1F","tel" : "076-246-5670 ","opentime" : " 12:00～23:00、12:00～14:00、20:00～23:00","holiday" : "{}","search_time" : ["2&3&4&5,18-00,25-00" , "6&7,18-00,26-00" ],"search_holiday" : { "days" :  "{}" , "month" :  "{}" },"access_line" : "北陸鉄道石川線","access_station" : "馬替駅","access_walk" : 16,"budget" : 0,"category_names" : ["カラオケボックス"]},{"id" : "r214700","name" : "無添くら寿司 高尾台店","name_kana" : "ムテンクラズシ タカオダイテン","latitude" : 36.517503,"longitude" : 136.630558,"address" : "〒921-8155 石川県金沢市高尾台3-88","tel" : "076-298-2091 ","opentime" : "月～金 11:00～23:00<BR>土・日・祝日 10:20～23:00","holiday" : "年中無休","search_time" : ["1&2&3&4&6&7,07-30,18-30"],"search_holiday" : { "days" :  "{}", "month" :  "{}" },"access_line" : "北陸鉄道石川線","access_station" : "馬替駅","access_walk" : 11,"budget" : 1000,"category_names" : ["回転寿司", "ファミリーレストラン"]},{"id" : "6275474","name" : "ベトナム屋台めし ムサク ","name_kana" : "ベトナムヤタイメシムサク","latitude" : 36.531869,"longitude" : 136.611458,"address" : "〒921-8815 石川県野々市市本町6-14-43 第2トキオビル","tel" : "076-248-7377 ","opentime" : " ランチ：11:30～15:00(L.O.14:30)、ディナー：17:30～24:00(L.O.23:00)","holiday" : "※ランチ定休日：土日祝ディナー定休日： 木曜日","search_time" : ["3&4&5&6&7,18-00,26-00" ],"search_holiday" : { "days" :  "{}" , "month" :  "3,2" },"access_line" : "JR北陸線","access_station" : "野々市駅","access_walk" : 15,"budget" : 2500,"category_names" : ["ベトナム料理", "オーガニック料理"]},{"id" : "7013355","name" : "Lotus ","name_kana" : "ロウタス","latitude" : 36.531867,"longitude" : 136.611431,"address" : "〒921-8815 石川県野々市市本町6-14-43 ","tel" : "076-246-7377 ","opentime" : "{}","holiday" : "{}","search_time" : ["2&3&4&5&6&7,18-00,25-00" ],"search_holiday" : { "days" :  "{}" , "month" :  "{}" },"access_line" : "北陸鉄道石川線","access_station" : "野々市（北陸鉄道）駅","access_walk" : 16,"budget" : 0,"category_names" : ["洋食屋"]},{"id" : "5322260","name" : "大衆割烹 田舎小屋 ","name_kana" : "タイシュウカッポウイナカゴヤ","latitude" : 36.531867,"longitude" : 136.611431,"address" : "〒921-8815 石川県野々市市本町6-14-43 ","tel" : "076-248-1758 ","opentime" : "{}","holiday" : "{}","search_time" : ["{}" ],"search_holiday" : { "days" :  "{}" , "month" :  "{}" },"access_line" : "北陸鉄道石川線","access_station" : "野々市（北陸鉄道）駅","access_walk" : 15,"budget" : 0,"category_names" : ["割烹"]},{"id" : "5159665","name" : "さかい ","name_kana" : "サカイ","latitude" : 36.543097,"longitude" : 136.620353,"address" : "〒921-8802 石川県野々市市押野6-59 ","tel" : "076-294-0348 ","opentime" : "{}","holiday" : "{}","search_time" : ["{}" ],"search_holiday" : { "days" :  "{}" , "month" :  "{}" },"access_line" : "北陸鉄道石川線","access_station" : "押野駅","access_walk" : 10,"budget" : 0,"category_names" : ["居酒屋"]},{"id" : "r478000","name" : "中国 旬菜坊 幸來 ","name_kana" : "チュウゴクシュンサイボウコウライ","latitude" : 36.519056,"longitude" : 136.620122,"address" : "〒921-8148 石川県金沢市額新保1-331","tel" : "050-3462-5052 ","opentime" : "土・日・祝 ランチ：11:30～14:30(L.O.14:00)、ディナー：17:00～22:30(L.O.22:00)<BR>月～水・金 ランチ：11:30～14:30(L.O.14:00)<BR>月～水・金 ディナー：18:00～22:30(L.O.22:00)","holiday" : "毎週木曜日 第4水曜日<BR>その他（2017年12月20日・2018年1月10日）<BR>年末年始（2017年12月29日～2018年1月2日）<BR>※12月27日は休まず営業いたします<BR>※12月28日は休まず営業いたします<BR>※1月4日は休まず営業いたします","search_time" : ["2&3&4&5&6&7,11-00,14-00", "2&3&4&5&6&7,17-00,25-00" ],"search_holiday" : { "days" :  "{}" , "month" :  "{}" },"access_line" : "ＪＲ北陸本線","access_station" : "野々市駅","access_walk" : 11,"budget" : 2500,"category_names" : ["中華料理", "餃子"]},{"id" : "6153850","name" : "手作りごはん屋さん たから食堂 ","name_kana" : "テヅクリゴハンヤサンタカラショクドウ","latitude" : 36.525958,"longitude" : 136.644319,"address" : "〒921-8151 石川県金沢市窪6-227-1 ","tel" : "076-244-2644 ","opentime" : " 昼の部：11:30～14:00(L.O.14:00)、夜の部：17:00～21:30(L.O.21:30)","holiday" : "毎週日曜日<BR>※※2016年12月30日～2017年1月4日","search_time" : ["1&2&3&5&6&7,11-30,14-00", "1&2&3&5&6&7,17-30,22-00" ],"search_holiday" : { "days" :  "{}" , "month" :  "{}" },"access_line" : "北鉄バス","access_station" : "錦丘高校前","access_walk" : 1,"budget" : 800,"category_names" : ["定食・食事処"]},{"id" : "6009050","name" : "様 様 ","name_kana" : "サマサマ","latitude" : 36.517333,"longitude" : 136.629917,"address" : "〒921-8155 石川県金沢市高尾台4-173 ","tel" : "076-214-7655 ","opentime" : "月～木 居酒屋タイム：17:00～翌01:00<BR>金・土 居酒屋タイム：17:00～翌02:00<BR>日・祝日 居酒屋タイム：17:00～24:00","holiday" : "年中無休","search_time" : ["2&3&4&5&6&7,17-00,25-00" ],"search_holiday" : { "days" :  "{}" , "month" :  "0,japanese_holiday" },"access_line" : "北陸鉄道石川線","access_station" : "馬替駅","access_walk" : 10,"budget" : 0,"category_names" : ["焼き鳥"]},{"id" : "5322262","name" : "かず味 ","name_kana" : "カズミ","latitude" : 36.540375,"longitude" : 136.615872,"address" : "〒921-8802 石川県野々市市押野1-61 ","tel" : "076-248-6648 ","opentime" : "{}","holiday" : "{}","search_time" : ["{}" ],"search_holiday" : { "days" :  "{}" , "month" :  "{}" },"access_line" : "北陸鉄道石川線","access_station" : "押野駅","access_walk" : 11,"budget" : 0,"category_names" : ["小料理"]},{"id" : "7110045","name" : "星乃珈琲店 金沢押野店 ","name_kana" : "ホシノコーヒーテンカナザワオシノテン","latitude" : 36.543414,"longitude" : 136.620961,"address" : "〒921-8802 石川県野々市市押野6-6 ","tel" : "076-246-5005 ","opentime" : "月～日 07:00～22:00(L.O.21:30)","holiday" : "{}","search_time" : ["{}" ],"search_holiday" : { "days" :  "{}" , "month" :  "{}" },"access_line" : "北陸鉄道石川線","access_station" : "押野駅","access_walk" : 9,"budget" : 0,"category_names" : ["カフェ"]},{"id" : "7382999","name" : "いけちゃん ","name_kana" : "イケチャン","latitude" : 36.525883,"longitude" : 136.644333,"address" : "〒921-8151 石川県金沢市窪6-227-1 ","tel" : "076-241-6443 ","opentime" : "土・日・祝 11:30～23:00(営業時間　平日　昼11：30～14：30　夜17：30～23：00<BR>　　　　　祝土日　11：30～23：00)","holiday" : "毎週火曜日","search_time" : ["1&2&3&4&5&6&7,11-00,24-00" ],"search_holiday" : { "days" :  "{}" , "month" :  "{}" },"access_line" : "{}","access_station" : "{}","access_walk" : {},"budget" : 1200,"category_names" : ["居酒屋"]},{"id" : "6438695","name" : "Amber Jade ","name_kana" : "アンバージェイド","latitude" : 36.524500,"longitude" : 136.613333,"address" : "〒921-8821 石川県野々市市白山町13-6 カメリア木野T01","tel" : "076-246-8001 ","opentime" : "{}","holiday" : "{}","search_time" : ["{}" ],"search_holiday" : { "days" :  "{}" , "month" :  "{}" },"access_line" : "北陸鉄道石川線","access_station" : "馬替駅","access_walk" : 16,"budget" : 900,"category_names" : ["カフェ"]},{"id" : "5448668","name" : "モスバーガー野々市押越店 ","name_kana" : "モスバーガーノノイチオシコシテン","latitude" : 36.537736,"longitude" : 136.613422,"address" : "〒921-8803 石川県野々市市押越1-203 ","tel" : "076-294-6865 ","opentime" : " 07:00～24:00、07:00～09:00(朝専用メニュー)","holiday" : "{}","search_time" : ["{}" ],"search_holiday" : { "days" :  "{}" , "month" :  "{}" },"access_line" : "北陸鉄道石川線","access_station" : "野々市（北陸鉄道）駅","access_walk" : 15,"budget" : 0,"category_names" : ["ハンバーガー"]},{"id" : "5322075","name" : "紋 ","name_kana" : "モン","latitude" : 36.544847,"longitude" : 136.628856,"address" : "〒921-8044 石川県金沢市米泉町4-18-5 ","tel" : "076-243-7477 ","opentime" : "{}","holiday" : "{}","search_time" : ["{}" ],"search_holiday" : { "days" :  "{}" , "month" :  "{}" },"access_line" : "北陸鉄道石川線","access_station" : "新西金沢駅","access_walk" : 11,"budget" : 0,"category_names" : ["割烹"]},{"id" : "r699400","name" : "ロイヤルハワイアンテーブルイースト ","name_kana" : "ロイヤルハワイアンテーブルイースト","latitude" : 36.530392,"longitude" : 136.611236,"address" : "〒921-8815 石川県野々市市本町6-22-1 Seria2F","tel" : "050-3464-6618 ","opentime" : " ディナー：18:00～24:00(L.O.23:30)<BR>日 ディナー：17:00～24:00(L.O.23:30)","holiday" : "毎週木曜日<BR>※祝、祝前は営業致しております。","search_time" : ["1&2&3&5&6&7,11-00,22-00" ],"search_holiday" : { "days" :  "{}" , "month" :  "{}" },"access_line" : "北陸鉄道石川線","access_station" : "野々市駅","access_walk" : 6,"budget" : 2000,"category_names" : ["居酒屋", "ダイニングバー"]},{"id" : "5641956","name" : "スシロー 金沢有松店 ","name_kana" : "スシローカナザワアリマツテン","latitude" : 36.539417,"longitude" : 136.642258,"address" : "〒921-8161 石川県金沢市有松2-4-33 ","tel" : "076-201-0171 ","opentime" : "{}","holiday" : "無","search_time" : ["1&2&3&4&5&6&7,18-00,25-00" ],"search_holiday" : { "days" :  "{}" , "month" :  "{}" },"access_line" : "北陸鉄道石川線","access_station" : "野町駅","access_walk" : 19,"budget" : 0,"category_names" : ["回転寿司"]},{"id" : "5372518","name" : "すし追 ","name_kana" : "スシツイ","latitude" : 36.530861,"longitude" : 136.611114,"address" : "〒921-8815 石川県野々市市本町6-17-4 ","tel" : "076-248-0409 ","opentime" : "{}","holiday" : "{}","search_time" : ["{}" ],"search_holiday" : { "days" :  "{}" , "month" :  "{}" },"access_line" : "北陸鉄道石川線","access_station" : "野々市（北陸鉄道）駅","access_walk" : 17,"budget" : 0,"category_names" : ["寿司"]},{"id" : "r188217","name" : "CoCo壱番屋 金沢有松店","name_kana" : "ココイチバンヤ カナザワアリマツテン","latitude" : 36.538922,"longitude" : 136.642772,"address" : "〒921-8161 石川県金沢市有松2-5-5","tel" : "076-243-9700 ","opentime" : " 11:00～24:00","holiday" : "無","search_time" : ["{}" ],"search_holiday" : { "days" :  "{}" , "month" :  "{}" },"access_line" : "北陸鉄道石川線","access_station" : "押野駅","access_walk" : 7,"budget" : 900,"category_names" : ["ファーストフード", "カレー その他"]},{"id" : "7503352","name" : "和菓子 村上 本社店 ","name_kana" : "ワガシムラカミホンシャテン","latitude" : 36.541547,"longitude" : 136.640000,"address" : "〒921-8042 石川県金沢市泉本町1-4 ","tel" : "076-242-1411 ","opentime" : "月～日 08:45～18:00","holiday" : "※1/1休業","search_time" : ["{}" ],"search_holiday" : { "days" :  "{}" , "month" :  "{}" },"access_line" : "北陸鉄道石川線","access_station" : "野町駅","access_walk" : 16,"budget" : 0,"category_names" : ["甘味処"]},{"id" : "6162836","name" : "蛇之目寿司 額店 ","name_kana" : "ジャノメズシヌカテン","latitude" : 36.518458,"longitude" : 136.620653,"address" : "〒921-8148 石川県金沢市額新保1-445 ","tel" : "076-298-7722 ","opentime" : "{}","holiday" : "{}","search_time" : ["1&2&3&4&6&7,17-00,25-00" ],"search_holiday" : { "days" :  "{}" , "month" :  "{}" },"access_line" : "北陸鉄道石川線","access_station" : "馬替駅","access_walk" : 6,"budget" : 0,"category_names" : ["寿司"]},{"id" : "5402566","name" : "ミン楽 ","name_kana" : "ミンラク","latitude" : 36.517100,"longitude" : 136.626006,"address" : "〒921-8149 石川県金沢市額新町1-222-1 ","tel" : "076-298-7026 ","opentime" : "{}","holiday" : "{}","search_time" : ["{}" ],"search_holiday" : { "days" :  "{}" , "month" :  "{}" },"access_line" : "北陸鉄道石川線","access_station" : "馬替駅","access_walk" : 7,"budget" : 0,"category_names" : ["中華料理"]},{"id" : "6079158","name" : "焼肉亭大島窪店 ","name_kana" : "ヤキニクテイオオシマクボテン","latitude" : 36.522389,"longitude" : 136.642258,"address" : "〒921-8151 石川県金沢市窪4-408 ","tel" : "076-245-2911 ","opentime" : "月～金 ディナー：17:00～24:00(L.O.23:30)<BR>土・日 ランチ：12:00～15:00(L.O.15:00)","holiday" : "無","search_time" : ["{}" ],"search_holiday" : { "days" :  "{}" , "month" :  "{}" },"access_line" : "ＪＲ北陸本線","access_station" : "西金沢駅","access_walk" : 10,"budget" : 2500,"category_names" : ["焼肉", "ホルモン"]},{"id" : "5322094","name" : "料理 椀 ","name_kana" : "リョウリワン","latitude" : 36.521867,"longitude" : 136.641744,"address" : "〒921-8151 石川県金沢市窪5-639 D'hill 1F","tel" : "076-243-9001 ","opentime" : "月～日 ランチ：11:30～14:30(L.O.13:30)<BR>月～日 ディナー：17:30～21:30(L.O.20:00)","holiday" : "不定休日あり","search_time" : ["1&2&3&5&6&7,17-30,25-00" ],"search_holiday" : { "days" :  "01-01,01-13" , "month" :  "{}" },"access_line" : "ＪＲ北陸本線","access_station" : "金沢駅","access_walk" : 20,"budget" : 5000,"category_names" : ["懐石料理"]},{"id" : "5039207","name" : "まつもと食堂 野々市本町支店","name_kana" : "マツモトショクドウ ノノイチホンマチシテン","latitude" : 36.532869,"longitude" : 136.610992,"address" : "〒921-8815 石川県野々市市本町6-9-14 ","tel" : "076-248-2800 ","opentime" : "火～日 ランチ：11:00～15:00<BR>火～日 ディナー：17:00～21:00","holiday" : "毎週月曜日","search_time" : ["{}" ],"search_holiday" : { "days" :  "{}" , "month" :  "{}" },"access_line" : "ＪＲ北鉄石川線","access_station" : "野々市駅","access_walk" : 16,"budget" : 800,"category_names" : ["ラーメン・麺料理 その他", "カレーうどん"]},{"id" : "5219517","name" : "炭火焼肉 大阪あじまん ","name_kana" : "スミビヤキニクオオサカアジマン","latitude" : 36.516931,"longitude" : 136.630247,"address" : "〒921-8155 石川県金沢市高尾台3-82 ","tel" : "076-296-0059 ","opentime" : "{}","holiday" : "{}","search_time" : ["3&4&5&6,18-00,24-00","1&7,17-00,24-00" ],"search_holiday" : { "days" :  "{}" , "month" :  "{}" },"access_line" : "北陸鉄道石川線","access_station" : "馬替駅","access_walk" : 11,"budget" : 0,"category_names" : ["焼肉"]},{"id" : "5546939","name" : "裏路地の隠れ家バル GOHAN ","name_kana" : "ウラロヂノカクレガバルゴハン","latitude" : 36.519131,"longitude" : 136.618661,"address" : "〒921-8148 石川県金沢市額新保1-341 ","tel" : "076-296-5858 ","opentime" : "月・火・木～日・祝日・祝前日 ディナー・バー：18:00～翌02:00(L.O.02:00)","holiday" : "毎週水曜日","search_time" : ["{}" ],"search_holiday" : { "days" :  "{}" , "month" :  "{}" },"access_line" : "北陸鉄道石川線","access_station" : "馬替駅","access_walk" : 8,"budget" : 0,"category_names" : ["スペインバル・イタリアンバール"]},{"id" : "5834501","name" : "すし融 ","name_kana" : "スシユウ","latitude" : 36.520575,"longitude" : 136.640525,"address" : "〒921-8155 石川県金沢市高尾台1-404 ビジョンワールドビル1F","tel" : "076-298-4483 ","opentime" : "{}","holiday" : "{}","search_time" : ["{}" ],"search_holiday" : { "days" :  "{}" , "month" :  "{}" },"access_line" : "北陸鉄道石川線","access_station" : "馬替駅","access_walk" : 21,"budget" : 0,"category_names" : ["寿司"]},{"id" : "6850146","name" : "たこ屋 ","name_kana" : "タコヤ","latitude" : 36.516753,"longitude" : 136.629089,"address" : "〒921-8154 石川県金沢市高尾南3-2-1 ","tel" : "076-298-1170 ","opentime" : "{}","holiday" : "{}","search_time" : ["{}" ],"search_holiday" : { "days" :  "{}" , "month" :  "{}" },"access_line" : "北陸鉄道石川線","access_station" : "馬替駅","access_walk" : 10,"budget" : 0,"category_names" : ["たこ焼き"]},{"id" : "6199021","name" : "らーめん みそ吉 ","name_kana" : "ラーメンミソキチ","latitude" : 36.517858,"longitude" : 136.621422,"address" : "〒921-8148 石川県金沢市額新保1-183-6 ","tel" : "076-296-2342 ","opentime" : "月～日 ランチ：11:30～15:00(L.O.14:30)<BR>火～日 ディナー：18:00～22:30(L.O.22:00)","holiday" : "※月曜日のディナータイム","search_time" : ["{}" ],"search_holiday" : { "days" :  "{}" , "month" :  "{}" },"access_line" : "北陸鉄道石川線","access_station" : "馬替駅","access_walk" : 1,"budget" : 800,"category_names" : ["ラーメン"]},{"id" : "5858758","name" : "ノバール ","name_kana" : "ノバール","latitude" : 36.539344,"longitude" : 136.642972,"address" : "〒921-8161 石川県金沢市有松2-4-30 ","tel" : "076-244-3855 ","opentime" : "{}","holiday" : "{}","search_time" : ["{}" ],"search_holiday" : { "days" :  "{}" , "month" :  "{}" },"access_line" : "北陸鉄道石川線","access_station" : "野町駅","access_walk" : 19,"budget" : 0,"category_names" : ["喫茶店・軽食"]},{"id" : "6893953","name" : "TEXAS HANDS 西泉店 ","name_kana" : "テキサスハンズニシイズミテン","latitude" : 36.544622,"longitude" : 136.634283,"address" : "〒921-8043 石川県金沢市西泉3-42 ","tel" : "076-243-1105 ","opentime" : " 10:00～23:00(L.O.22:30)","holiday" : "年中無休","search_time" : ["{}" ],"search_holiday" : { "days" :  "{}" , "month" :  "{}" },"access_line" : "北陸鉄道石川線","access_station" : "西泉駅","access_walk" : 8,"budget" : 0,"category_names" : ["ピザ"]},{"id" : "r787800","name" : "彩食厨房 TSUBOMI ～つぼみ～ ","name_kana" : "サイショクチュウボウツボミ","latitude" : 36.540222,"longitude" : 136.614661,"address" : "〒921-8064 石川県金沢市八日市1-681","tel" : "050-3491-4260 ","opentime" : " 17:00～翌3:00(L.O.2:00)","holiday" : "不定休日あり","search_time" : ["2&3,10-00,17-00" ],"search_holiday" : { "days" :  "{}" , "month" :  "{}" },"access_line" : "北陸鉄道石川線","access_station" : "野々市駅","access_walk" : 6,"budget" : 3500,"category_names" : ["居酒屋", "鉄板焼き"]},{"id" : "3110190","name" : "らーめん世界 西泉店","name_kana" : "ラーメンセカイ ニシイズミテン","latitude" : 36.544475,"longitude" : 136.634842,"address" : "〒921-8043 石川県金沢市西泉2-115 ","tel" : "076-244-8677 ","opentime" : "月～日 ランチ・ディナー：11:00～翌3:00","holiday" : "無","search_time" : ["{}" ],"search_holiday" : { "days" :  "{}" , "month" :  "{}" },"access_line" : "ＪＲ北陸本線","access_station" : "西金沢駅","access_walk" : 5,"budget" : 900,"category_names" : ["ラーメン", "餃子"]},{"id" : "7215465","name" : "中華そば 桜三四郎 ","name_kana" : "チュウカソバサクラサンシロウ","latitude" : 36.516661,"longitude" : 136.630161,"address" : "〒921-8154 石川県金沢市高尾南3-7 ","tel" : "076-298-0346 ","opentime" : "{}","holiday" : "{}","search_time" : ["{}" ],"search_holiday" : { "days" :  "{}" , "month" :  "{}" },"access_line" : "北陸鉄道石川線","access_station" : "額住宅前駅","access_walk" : 11,"budget" : 0,"category_names" : ["ラーメン"]},{"id" : "5289628","name" : "お多福 額店 ","name_kana" : "オタフクヌカテン","latitude" : 36.517736,"longitude" : 136.621097,"address" : "〒921-8148 石川県金沢市額新保1-176 ","tel" : "076-298-0920 ","opentime" : "{}","holiday" : "{}","search_time" : ["{}" ],"search_holiday" : { "days" :  "{}" , "month" :  "{}" },"access_line" : "北陸鉄道石川線","access_station" : "額住宅前駅","access_walk" : 6,"budget" : 0,"category_names" : ["うどん"]},{"id" : "5038435","name" : "庵とん ","name_kana" : "アントン","latitude" : 36.520603,"longitude" : 136.641128,"address" : "〒921-8155 石川県金沢市高尾台1-408 アーベイン408","tel" : "076-298-9989 ","opentime" : "{}","holiday" : "{}","search_time" : ["2&4&5&6&7,18-00,25-00","1,17-00,25-00" ],"search_holiday" : { "days" :  "{}" , "month" :  "{}" },"access_line" : "北陸鉄道石川線","access_station" : "馬替駅","access_walk" : 21,"budget" : 0,"category_names" : ["とんかつ（トンカツ）"]},{"id" : "7219243","name" : "チャームズスカイ ","name_kana" : "チャームズスカイ","latitude" : 36.523803,"longitude" : 136.612636,"address" : "〒921-8815 石川県野々市市本町5-17-15 屋上","tel" : "076-248-4117 ","opentime" : "{}","holiday" : "{}","search_time" : ["1&3&4&5&6&7,10-00,19-00" ],"search_holiday" : { "days" :  "{}" , "month" :  "{}" },"access_line" : "北陸鉄道石川線","access_station" : "馬替駅","access_walk" : 16,"budget" : 0,"category_names" : ["ビアホール"]},{"id" : "7104839","name" : "和喫茶 ほっと市場 ","name_kana" : "ワキッサホットイチバ","latitude" : 36.523803,"longitude" : 136.612636,"address" : "〒921-8815 石川県野々市市本町5-17-15 ","tel" : "076-248-4117 ","opentime" : "{}","holiday" : "{}","search_time" : ["1&2&3&4&5&6&7,11-30,14-30","1&2&3&4&5&6&7,17-30,22-30" ],"search_holiday" : { "days" :  "{}" , "month" :  "{}" },"access_line" : "北陸鉄道石川線","access_station" : "馬替駅","access_walk" : 16,"budget" : 0,"category_names" : ["喫茶店・軽食"]},{"id" : "7304643","name" : "やきとり 膳 ","name_kana" : "ヤキトリゼン","latitude" : 36.521739,"longitude" : 136.642467,"address" : "〒921-8151 石川県金沢市窪4-403 ","tel" : "076-226-1169 ","opentime" : "火～日・祝前日・祝日 18:00～24:00(L.O.23:00)","holiday" : "毎週月曜日<BR>※祝日の場合は営業","search_time" : ["{}" ],"search_holiday" : { "days" :  "{}" , "month" :  "{}" },"access_line" : "北陸鉄道石川線","access_station" : "馬替駅","access_walk" : 26,"budget" : 3000,"category_names" : ["居酒屋", "焼き鳥"]},{"id" : "5653869","name" : "暫 ","name_kana" : "シバラク","latitude" : 36.541128,"longitude" : 136.615211,"address" : "〒921-8802 石川県野々市市押野7-69 ","tel" : "076-248-2233 ","opentime" : "{}","holiday" : "{}","search_time" : ["1&2&3&4&5&6&7,11-00,15-00","1&2&3&4&5&6&7,17-00,24-00" ],"search_holiday" : { "days" :  "{}" , "month" :  "{}" },"access_line" : "北陸鉄道石川線","access_station" : "押野駅","access_walk" : 13,"budget" : 0,"category_names" : ["割烹"]},{"id" : "6425342","name" : "あったか料理 呑処 そうるめいと ","name_kana" : "アッタカリョウリノミドコロソウルメイト","latitude" : 36.540261,"longitude" : 136.643000,"address" : "〒921-8161 石川県金沢市有松2-3-30 YMビル1F","tel" : "076-244-1705 ","opentime" : " ディナー：18:00～24:00(L.O.23:30)<BR>火～木・土 ランチ：11:30～14:30(L.O.14:00)","holiday" : "毎週月曜日 第3日曜日","search_time" : ["{}" ],"search_holiday" : { "days" :  "{}" , "month" :  "{}" },"access_line" : "{}","access_station" : "{}","access_walk" : {},"budget" : 1500,"category_names" : ["居酒屋", "洋食屋"]},{"id" : "1084176","name" : "ＭＥＧＵ ","name_kana" : "メグ","latitude" : 36.521289,"longitude" : 136.642564,"address" : "〒921-8151 石川県金沢市窪4-400 ","tel" : "076-280-7575 ","opentime" : "月・水～日 ランチ：11:00～15:00(L.O.14:00)<BR>月・水～日 ディナー：18:00～22:00(L.O.21:00)","holiday" : "{}","search_time" : ["{}" ],"search_holiday" : { "days" :  "{}" , "month" :  "{}" },"access_line" : "ＪＲ","access_station" : "金沢駅","access_walk" : 20,"budget" : 2500,"category_names" : ["フレンチ(フランス料理)"]},{"id" : "6359412","name" : "焼肉 モーちゃん ","name_kana" : "ヤキニクモーチャン","latitude" : 36.516103,"longitude" : 136.629928,"address" : "〒921-8154 石川県金沢市高尾南3-81 ","tel" : "076-298-0574 ","opentime" : "{}","holiday" : "{}","search_time" : ["1&2&3&5&6&7,11-30,14-30" ],"search_holiday" : { "days" :  "{}" , "month" :  "3,2" },"access_line" : "北陸鉄道石川線","access_station" : "額住宅前駅","access_walk" : 11,"budget" : 0,"category_names" : ["焼肉"]},{"id" : "5039190","name" : "味処常 ","name_kana" : "アジドコロツネ","latitude" : 36.524117,"longitude" : 136.611814,"address" : "〒921-8815 石川県野々市市本町5-18-40 ","tel" : "076-248-5508 ","opentime" : "{}","holiday" : "{}","search_time" : ["2&3&4&5&6&7,17-30,23-00" ],"search_holiday" : { "days" :  "{}" , "month" :  "{}" },"access_line" : "北陸鉄道石川線","access_station" : "馬替駅","access_walk" : 1,"budget" : 0,"category_names" : ["居酒屋"]},{"id" : "7113228","name" : "多門 ","name_kana" : "タモン","latitude" : 36.516417,"longitude" : 136.633044,"address" : "〒921-8153 石川県金沢市高尾町ソ48 ","tel" : "076-298-7037 ","opentime" : "{}","holiday" : "{}","search_time" : ["{}" ],"search_holiday" : { "days" :  "{}" , "month" :  "{}" },"access_line" : "北陸鉄道石川線","access_station" : "馬替駅","access_walk" : 14,"budget" : 0,"category_names" : ["そば"]},{"id" : "5238961","name" : "PIZZERIA SALINA ","name_kana" : "ピッツェリアサリーナ","latitude" : 36.525697,"longitude" : 136.646100,"address" : "〒921-8151 石川県金沢市窪6-112 ","tel" : "076-241-8933 ","opentime" : "{}","holiday" : "{}","search_time" : ["{}" ],"search_holiday" : { "days" :  "{}" , "month" :  "{}" },"access_line" : "北陸鉄道石川線","access_station" : "野々市工大前駅","access_walk" : 27,"budget" : 0,"category_names" : ["ピザ"]},{"id" : "5322084","name" : "割烹 みや川 ","name_kana" : "カッポウミヤカワ","latitude" : 36.517625,"longitude" : 136.619403,"address" : "〒921-8148 石川県金沢市額新保1-431 ","tel" : "076-298-2225 ","opentime" : " 11:30～14:00、16:30～22:00","holiday" : "毎週水曜日","search_time" : ["{}" ],"search_holiday" : { "days" :  "{}" , "month" :  "{}" },"access_line" : "北陸鉄道石川線","access_station" : "額住宅前駅","access_walk" : 8,"budget" : 0,"category_names" : ["割烹"]},{"id" : "r629700","name" : "菜園ブッフェ ピソリーノ 野々市店","name_kana" : "サイエンブッフェピソリーノ ノノイチテン","latitude" : 36.519686,"longitude" : 136.615700,"address" : "〒921-8822 石川県野々市市矢作3-15","tel" : "050-3463-4538 ","opentime" : " ランチ：11:00～17:00、ディナー：17:00～23:00(L.O.22:30)(※最終入店 22:00)","holiday" : "年中無休<BR>※元旦は営業しております   平成29年より年中無休とさせていただきます","search_time" : ["{}" ],"search_holiday" : { "days" :  "{}" , "month" :  "{}" },"access_line" : "北陸鉄道石川線","access_station" : "馬替駅","access_walk" : 6,"budget" : 1650,"category_names" : ["イタリアン(イタリア料理)", "バイキング・ビュッフェ"]},{"id" : "r626710","name" : "地酒と手造り料理 八兆屋 野々市矢作店","name_kana" : "ジザケトテヅクリリョウリハッチョウヤ ノノイチヤハギテン","latitude" : 36.518908,"longitude" : 136.616683,"address" : "〒921-8822 石川県野々市市矢作1-146","tel" : "050-3463-6922 ","opentime" : "月～日 ランチ：11:00～15:00(L.O.14:30)<BR>月～日 ディナー：17:00～24:00(L.O.23:00)","holiday" : "年中無休","search_time" : ["1&2&3&4&5&6&7,11-00,15-00","1&2&3&4&5&6&7,17-00,22-00" ],"search_holiday" : { "days" :  "{}" , "month" :  "{}" },"access_line" : "北陸鉄道石川線","access_station" : "馬替駅","access_walk" : 11,"budget" : 3500,"category_names" : ["居酒屋", "郷土料理"]},{"id" : "6360138","name" : "tout le monde chouchou 野々市店 ","name_kana" : "トゥールモンドシュシュノノイチテン","latitude" : 36.522047,"longitude" : 136.612917,"address" : "〒921-8825 石川県野々市市三納79街区1 アクロスプラザ野々市","tel" : "076-246-1818 ","opentime" : "{}","holiday" : "{}","search_time" : ["{}" ],"search_holiday" : { "days" :  "{}" , "month" :  "{}" },"access_line" : "北陸鉄道石川線","access_station" : "馬替駅","access_walk" : 15,"budget" : 0,"category_names" : ["ケーキ屋・スイーツ"]},{"id" : "r185100","name" : "辰辰 ","name_kana" : "タツシン","latitude" : 36.538289,"longitude" : 136.611464,"address" : "〒921-8064 石川県金沢市八日市2-651","tel" : "050-3468-4393 ","opentime" : " 11:30～14:00、17:30～23:00(L.O.22:30)","holiday" : "毎週水曜日","search_time" : ["1&2&4&5&6&7,11-30,22-00" ],"search_holiday" : { "days" :  "{}" , "month" :  "{}" },"access_line" : "ＪＲ北陸本線","access_station" : "金沢駅","access_walk" : 15,"budget" : 3500,"category_names" : ["刺身・海鮮料理", "寿司"]},{"id" : "5859197","name" : "あ うん ","name_kana" : "アウン","latitude" : 36.529144,"longitude" : 136.609328,"address" : "〒921-8845 石川県野々市市太平寺3-179 ","tel" : "076-248-7080 ","opentime" : "{}","holiday" : "{}","search_time" : ["{}" ],"search_holiday" : { "days" :  "{}" , "month" :  "{}" },"access_line" : "北陸鉄道石川線","access_station" : "野々市（北陸鉄道）駅","access_walk" : 19,"budget" : 0,"category_names" : ["喫茶店・軽食"]},{"id" : "5731091","name" : "RESTAURANT MONTROSE ","name_kana" : "レストランモンローズ","latitude" : 36.536750,"longitude" : 136.610461,"address" : "〒921-8803 石川県野々市市押越2-410 ","tel" : "076-248-6818 ","opentime" : "{}","holiday" : "{}","search_time" : ["{}" ],"search_holiday" : { "days" :  "{}" , "month" :  "{}" },"access_line" : "ＪＲ北陸本線","access_station" : "野々市（北陸本線）駅","access_walk" : 13,"budget" : 0,"category_names" : ["フレンチ(フランス料理)"]},{"id" : "6059940","name" : "焼肉家 こげたん 野々市矢作店 ","name_kana" : "ヤキニクヤコゲタンノノイチヤハギテン","latitude" : 36.518933,"longitude" : 136.616247,"address" : "〒921-8822 石川県野々市市矢作1-142 ","tel" : "076-229-7140 ","opentime" : "月～日・祝日・祝前日 17:00～翌01:00(L.O.24:30)","holiday" : "無","search_time" : ["1&2&3&5&6&7,17-30,23-00" ],"search_holiday" : { "days" :  "{}" , "month" :  "{}" },"access_line" : "北陸鉄道石川線","access_station" : "馬替駅","access_walk" : 11,"budget" : 0,"category_names" : ["焼肉"]},{"id" : "5834548","name" : "天きち ","name_kana" : "テンキチ","latitude" : 36.515836,"longitude" : 136.633272,"address" : "〒921-8154 石川県金沢市高尾南3-32 ","tel" : "076-298-4806 ","opentime" : "{}","holiday" : "{}","search_time" : ["{}" ],"search_holiday" : { "days" :  "{}" , "month" :  "{}" },"access_line" : "北陸鉄道石川線","access_station" : "馬替駅","access_walk" : 15,"budget" : 0,"category_names" : ["天ぷら"]},{"id" : "5604197","name" : "ぱんじ ","name_kana" : "パンジ","latitude" : 36.542311,"longitude" : 136.614783,"address" : "〒921-8802 石川県野々市市押野7-6-1 ","tel" : "076-248-6389 ","opentime" : "{}","holiday" : "{}","search_time" : ["{}" ],"search_holiday" : { "days" :  "{}" , "month" :  "{}" },"access_line" : "北陸鉄道石川線","access_station" : "押野駅","access_walk" : 14,"budget" : 0,"category_names" : ["カラオケボックス"]},{"id" : "5372520","name" : "すし処行栄 ","name_kana" : "スシドコロユキエ","latitude" : 36.537572,"longitude" : 136.610553,"address" : "〒921-8803 石川県野々市市押越2-41-2 ","tel" : "076-294-8668 ","opentime" : "{}","holiday" : "{}","search_time" : ["1&2&3&4&5&6&7,10-00,22-00" ],"search_holiday" : { "days" :  "{}" , "month" :  "{}" },"access_line" : "ＪＲ北陸本線","access_station" : "野々市（北陸本線）駅","access_walk" : 12,"budget" : 0,"category_names" : ["寿司"]},{"id" : "6440344","name" : "カラオケ コート・ダジュール 野々市矢作店","name_kana" : "カラオケコートダジュール ノノイチヤハギテン","latitude" : 36.518561,"longitude" : 136.616336,"address" : "〒921-8822 石川県野々市市矢作1-169 ","tel" : "076-246-2188 ","opentime" : "月～土・祝前日 10:00～翌5:00<BR>日・祝日 10:00～翌4:00","holiday" : "{}","search_time" : ["1&2&3&5&6&7,11-00,14-30","1&2&3&5&6&7,18-00,20-30" ],"search_holiday" : { "days" :  "{}" , "month" :  "{}" },"access_line" : "北陸鉄道石川線","access_station" : "馬替駅","access_walk" : 2,"budget" : 2000,"category_names" : ["カラオケボックス"]},{"id" : "6056629","name" : "とりどり ","name_kana" : "トリドリ","latitude" : 36.518555,"longitude" : 136.616261,"address" : "〒921-8822 石川県野々市市矢作1-169 ","tel" : "076-248-5939 ","opentime" : "月・水～土 17:00～24:00(L.O.23:30)<BR>日・祝日 17:00～23:30(L.O.23:00)","holiday" : "毎週火曜日","search_time" : ["1&2&3&4&5&6&7,11-00,22-30" ],"search_holiday" : { "days" :  "{}" , "month" :  "{}" },"access_line" : "ＪＲ北陸本線","access_station" : "金沢駅","access_walk" : 20,"budget" : 2600,"category_names" : ["焼き鳥", "和食 その他"]},{"id" : "r708000","name" : "和傘 ","name_kana" : "ワガサ","latitude" : 36.536569,"longitude" : 136.609925,"address" : "〒921-8803 石川県野々市市押越2-60","tel" : "050-3468-0799 ","opentime" : "月・水～日・祝前日・祝日 ディナー：17:30～翌1:30","holiday" : "毎週火曜日<BR>年末年始（2017年12月31日～2018年1月1日）<BR>※1月2日は休まず営業いたします","search_time" : ["{}" ],"search_holiday" : { "days" :  "{}" , "month" :  "{}" },"access_line" : "ＪＲ北陸本線","access_station" : "野々市駅","access_walk" : 12,"budget" : 2500,"category_names" : ["居酒屋", "刺身・海鮮料理"]},{"id" : "7196219","name" : "大吟豚 ","name_kana" : "ダイギントン","latitude" : 36.539014,"longitude" : 136.611261,"address" : "〒921-8064 石川県金沢市八日市2-40-1 ","tel" : "076-220-7732 ","opentime" : "{}","holiday" : "{}","search_time" : ["{}" ],"search_holiday" : { "days" :  "{}" , "month" :  "{}" },"access_line" : "ＪＲ北陸本線","access_station" : "野々市（北陸本線）駅","access_walk" : 14,"budget" : 0,"category_names" : ["ラーメン"]},{"id" : "r823900","name" : "とらくま 押越店","name_kana" : "トラクマ オシコシテン","latitude" : 36.536386,"longitude" : 136.609653,"address" : "〒921-8803 石川県野々市市押越2-62","tel" : "050-3374-4363 ","opentime" : " 17:00～翌1:00(L.O.24:00)","holiday" : "毎週火曜日","search_time" : ["{}" ],"search_holiday" : { "days" :  "{}" , "month" :  "{}" },"access_line" : "ＪＲ北陸本線","access_station" : "野々市駅","access_walk" : 12,"budget" : 4000,"category_names" : ["居酒屋"]},{"id" : "5607122","name" : "食楽空間 朋 ","name_kana" : "ショクラククウカントモ","latitude" : 36.525456,"longitude" : 136.647264,"address" : "〒921-8151 石川県金沢市窪6-123 ","tel" : "076-244-0660 ","opentime" : " 17:00～23:00","holiday" : "毎週水曜日","search_time" : ["{}" ],"search_holiday" : { "days" :  "{}" , "month" :  "{}" },"access_line" : "北陸鉄道石川線","access_station" : "野々市工大前駅","access_walk" : 28,"budget" : 0,"category_names" : ["創作料理"]},{"id" : "6414042","name" : "やきとりの名門 秋吉 野々市店","name_kana" : "ヤキトリノメイモンアキヨシ ノノイチテン","latitude" : 36.536200,"longitude" : 136.609389,"address" : "〒921-8803 石川県野々市市押越2-64 ","tel" : "076-294-4649 ","opentime" : "火～金・日・祝日 ディナー：17:00～23:00(L.O.22:30)<BR>土・祝前日 ディナー：17:00～23:30(L.O.23:00)","holiday" : "毎週月曜日","search_time" : ["{}" ],"search_holiday" : { "days" :  "{}" , "month" :  "{}" },"access_line" : "ＪＲ北陸本線","access_station" : "野々市駅","access_walk" : 4,"budget" : 2600,"category_names" : ["焼き鳥", "焼き鳥・肉料理・串料理 その他"]},{"id" : "7490981","name" : "Le berger ","name_kana" : "ルベルジェ","latitude" : 36.537028,"longitude" : 136.609681,"address" : "〒921-8803 石川県野々市市押越2-18 ホワイトハウス1F","tel" : "076-248-2567 ","opentime" : "月・水～日・祝前日・祝日 ランチ：11:30～15:00(L.O.13:00)<BR>月・水～日・祝前日・祝日 ディナー：18:00～23:00(L.O.21:30)","holiday" : "毎週火曜日","search_time" : ["2&3&4&5&6&7,11-00,26-00" ],"search_holiday" : { "days" :  "{}" , "month" :  "{}" },"access_line" : "{}","access_station" : "{}","access_walk" : {},"budget" : 5000,"category_names" : ["フレンチ(フランス料理)", "ビストロ"]},{"id" : "7365548","name" : "中国菜家 桃花片 ","name_kana" : "チュウゴクサイカトウカヘン","latitude" : 36.536978,"longitude" : 136.609650,"address" : "〒921-8803 石川県野々市市押越2-18 ","tel" : "076-209-6335 ","opentime" : "{}","holiday" : "{}","search_time" : ["{}" ],"search_holiday" : { "days" :  "{}" , "month" :  "{}" },"access_line" : "JR北陸本線","access_station" : "野々市（北陸本線）駅","access_walk" : 12,"budget" : 0,"category_names" : ["中華料理"]},{"id" : "r665200","name" : "カエデ珈琲 ","name_kana" : "カエデコーヒー","latitude" : 36.520981,"longitude" : 136.612550,"address" : "〒921-8825 石川県野々市市三納3-63","tel" : "050-3462-4164 ","opentime" : " モーニング：6:50～11:00、ランチ：11:00～15:00、ランチ・カフェ：15:00～22:00","holiday" : "年中無休","search_time" : ["{}" ],"search_holiday" : { "days" :  "{}" , "month" :  "{}" },"access_line" : "ＪＲ北陸本線","access_station" : "野々市駅","access_walk" : 10,"budget" : 1200,"category_names" : ["カフェ", "洋食屋"]},{"id" : "6422054","name" : "居酒屋 こよみ ","name_kana" : "イザカヤコヨミ","latitude" : 36.536042,"longitude" : 136.609114,"address" : "〒921-8803 石川県野々市市押越1-47 ","tel" : "076-294-4210 ","opentime" : "月～日 17:00～翌1:00(L.O.24:00)","holiday" : "無","search_time" : ["1&2&3&4&5&6&7,07-30,24-00" ],"search_holiday" : { "days" :  "{}" , "month" :  "{}" },"access_line" : "ＪＲ北陸本線","access_station" : "金沢駅","access_walk" : 20,"budget" : 3000,"category_names" : ["居酒屋"]},{"id" : "6373582","name" : "能登揚物酒家 一 ","name_kana" : "ノトアゲモノシュカハジメ","latitude" : 36.527597,"longitude" : 136.608492,"address" : "〒921-8845 石川県野々市市太平寺3-42 ヴィラージュ1F","tel" : "076-248-1244 ","opentime" : "{}","holiday" : "{}","search_time" : ["1&2&5&6&7,10-00,19-00","5,10-00,17-00" ],"search_holiday" : { "days" :  "{}" , "month" :  "3,3" },"access_line" : "北陸鉄道石川線","access_station" : "野々市（北陸鉄道）駅","access_walk" : 21,"budget" : 0,"category_names" : ["居酒屋"]},{"id" : "7413905","name" : "Cafe＋Bar23 ","name_kana" : "カフェバーニーサン","latitude" : 36.527597,"longitude" : 136.608492,"address" : "〒921-8845 石川県野々市市太平寺3-42 ヴィラージュ1F","tel" : "076-299-8339 ","opentime" : " 18:00～24:00(L.O.23:30)","holiday" : "毎週火曜日","search_time" : ["{}" ],"search_holiday" : { "days" :  "{}" , "month" :  "{}" },"access_line" : "北陸鉄道石川線","access_station" : "野々市（北陸鉄道）駅","access_walk" : 21,"budget" : 0,"category_names" : ["バー"]},{"id" : "6713170","name" : "kushi56 ","name_kana" : "クシコロ","latitude" : 36.527597,"longitude" : 136.608492,"address" : "〒921-8845 石川県野々市市太平寺3-42 ヴィラージュ北誠1F","tel" : "076-227-8801 ","opentime" : "{}","holiday" : "{}","search_time" : ["{}" ],"search_holiday" : { "days" :  "{}" , "month" :  "{}" },"access_line" : "北陸鉄道石川線","access_station" : "野々市（北陸鉄道）駅","access_walk" : 21,"budget" : 0,"category_names" : ["串焼き"]},{"id" : "r756100","name" : "MALIBU マリブ ","name_kana" : "マリブ","latitude" : 36.536553,"longitude" : 136.647667,"address" : "〒921-8171 石川県金沢市富樫3-1-35","tel" : "050-3462-9923 ","opentime" : "月・水～日・祝前日・祝日 10:30～22:30(  ※12/1より、17:30～22:30は完全予約制)","holiday" : "毎週火曜日","search_time" : ["{}" ],"search_holiday" : { "days" :  "{}" , "month" :  "{}" },"access_line" : "ＪＲ北陸本線","access_station" : "金沢駅","access_walk" : 20,"budget" : 1000,"category_names" : ["カフェ"]},{"id" : "7255956","name" : "ニュイ ～nuit～ ","name_kana" : "ニュイ","latitude" : 36.527636,"longitude" : 136.608456,"address" : "〒921-8845 石川県野々市市太平寺3-42 ヴィラージュ2F","tel" : "050-3637-2221 ","opentime" : "{}","holiday" : "{}","search_time" : ["{}" ],"search_holiday" : { "days" :  "{}" , "month" :  "{}" },"access_line" : "ＪＲ北陸本線","access_station" : "野々市駅","access_walk" : 7,"budget" : 1200,"category_names" : ["オーガニック料理", "カフェ"]},{"id" : "7255705","name" : "OHASHI －おはし－ ","name_kana" : "オハシ","latitude" : 36.527628,"longitude" : 136.608453,"address" : "〒921-8845 石川県野々市市太平寺3-42 ヴィラージュ1F","tel" : "076-220-7435 ","opentime" : "月～木 ランチ：11:30～14:00(L.O.13:30)<BR>月～木 ディナー：18:00～23:30(L.O.23:00)<BR>金～日 18:00～23:30(L.O.23:00)","holiday" : "不定休日あり<BR>※おはしのホームページできました!(^^)!。営業日の予定も、カレンダーで確認できます。","search_time" : ["{}" ],"search_holiday" : { "days" :  "{}" , "month" :  "{}" },"access_line" : "ＪＲ北陸本線","access_station" : "野々市駅","access_walk" : 7,"budget" : 3000,"category_names" : ["居酒屋", "スペインバル・イタリアンバール"]},{"id" : "5529686","name" : "プティポワ ","name_kana" : "プティポワ","latitude" : 36.521400,"longitude" : 136.645006,"address" : "〒921-8151 石川県金沢市窪3-85 ","tel" : "076-242-5756 ","opentime" : "{}","holiday" : "{}","search_time" : ["1&2&3&4&5&6&7,11-00,24-00" ],"search_holiday" : { "days" :  "{}" , "month" :  "{}" },"access_line" : "北陸鉄道石川線","access_station" : "馬替駅","access_walk" : 27,"budget" : 0,"category_names" : ["洋食屋"]},{"id" : "6340533","name" : "どれみ ","name_kana" : "ドレミ","latitude" : 36.524817,"longitude" : 136.647400,"address" : "〒921-8151 石川県金沢市窪6-15 ","tel" : "076-280-1003 ","opentime" : "{}","holiday" : "{}","search_time" : ["{}" ],"search_holiday" : { "days" :  "{}" , "month" :  "{}" },"access_line" : "北陸鉄道石川線","access_station" : "野々市工大前駅","access_walk" : 29,"budget" : 0,"category_names" : ["カラオケボックス"]},{"id" : "5553615","name" : "M’sDeli＆Cafe ","name_kana" : "エムズデリアンドカフェ","latitude" : 36.536925,"longitude" : 136.647600,"address" : "〒921-8035 石川県金沢市泉が丘2-12-38 ","tel" : "076-241-2310 ","opentime" : "{}","holiday" : "毎週月曜日","search_time" : ["1&2&3&4&5,18-00,27-00" ],"search_holiday" : { "days" :  "{}" , "month" :  "3,4" },"access_line" : "北陸鉄道石川線","access_station" : "野町駅","access_walk" : 22,"budget" : 0,"category_names" : ["カフェ"]},{"id" : "5159170","name" : "三ちゃん ","name_kana" : "サンチャン","latitude" : 36.520931,"longitude" : 136.644656,"address" : "〒921-8151 石川県金沢市窪3-136-1 ","tel" : "076-247-6005 ","opentime" : "{}","holiday" : "{}","search_time" : ["{}" ],"search_holiday" : { "days" :  "{}" , "month" :  "{}" },"access_line" : "北陸鉄道石川線","access_station" : "馬替駅","access_walk" : 27,"budget" : 0,"category_names" : ["居酒屋"]},{"id" : "5477734","name" : "田ばた 高尾店 ","name_kana" : "タバタタカオテン","latitude" : 36.515242,"longitude" : 136.634467,"address" : "〒921-8154 石川県金沢市高尾南2-29-2 ","tel" : "076-296-0020 ","opentime" : "{}","holiday" : "{}","search_time" : ["1&2&4&5&6&7,21-00,03-00" ],"search_holiday" : { "days" :  "{}" , "month" :  "{}" },"access_line" : "北陸鉄道石川線","access_station" : "額住宅前駅","access_walk" : 16,"budget" : 0,"category_names" : ["焼き鳥"]},{"id" : "5810516","name" : "カラオケ喫茶 うたいまっし ","name_kana" : "カラオケキッサウタイマッシ","latitude" : 36.515208,"longitude" : 136.634564,"address" : "〒921-8154 石川県金沢市高尾南2-29-1 ","tel" : "076-298-2444 ","opentime" : "{}","holiday" : "{}","search_time" : ["1&2&3&4&5&6&7,11-00,24-00" ],"search_holiday" : { "days" :  "{}" , "month" :  "{}" },"access_line" : "北陸鉄道石川線","access_station" : "額住宅前駅","access_walk" : 16,"budget" : 0,"category_names" : ["カラオケボックス"]},{"id" : "6379475","name" : "コメダ珈琲店 野々市矢作店 ","name_kana" : "コメダコーヒーテンノノイチヤハギテン","latitude" : 36.517981,"longitude" : 136.615639,"address" : "〒921-8822 石川県野々市市矢作2-47-1 ","tel" : "076-248-2242 ","opentime" : "{}","holiday" : "年中無休<BR>※※年末年始は変更する場合がございます","search_time" : ["{}" ],"search_holiday" : { "days" :  "{}" , "month" :  "{}" },"access_line" : "北陸鉄道石川線","access_station" : "額住宅前駅","access_walk" : 12,"budget" : 0,"category_names" : ["カフェ"]},{"id" : "7070716","name" : "焼肉かわむら ","name_kana" : "ヤキニクカワムラ","latitude" : 36.547647,"longitude" : 136.629928,"address" : "〒921-8044 石川県金沢市米泉町8-128 ","tel" : "076-247-0006 ","opentime" : "{}","holiday" : "{}","search_time" : ["2&3&4&5&6&7,11-00,25-00","1,11-00,23-00" ],"search_holiday" : { "days" :  "{}" , "month" :  "{}" },"access_line" : "北陸鉄道石川線","access_station" : "新西金沢駅","access_walk" : 8,"budget" : 0,"category_names" : ["焼肉"]},{"id" : "6515494","name" : "京華 窪店 ","name_kana" : "キョウカクボテン","latitude" : 36.521544,"longitude" : 136.645508,"address" : "〒921-8151 石川県金沢市窪3-325 ","tel" : "076-241-7677 ","opentime" : "{}","holiday" : "{}","search_time" : ["{}" ],"search_holiday" : { "days" :  "{}" , "month" :  "{}" },"access_line" : "北陸鉄道石川線","access_station" : "馬替駅","access_walk" : 29,"budget" : 0,"category_names" : ["中華料理"]},{"id" : "7110042","name" : "Catatsumuri ","name_kana" : "カタツムリ","latitude" : 36.526053,"longitude" : 136.608581,"address" : "〒921-8845 石川県野々市市太平寺1-6-1 ","tel" : "076-205-9554 ","opentime" : "{}","holiday" : "{}","search_time" : ["1&3&4&5&6&7,18-00,29-00" ],"search_holiday" : { "days" :  "{}" , "month" :  "{}" },"access_line" : "北陸鉄道石川線","access_station" : "馬替駅","access_walk" : 21,"budget" : 0,"category_names" : ["カフェ"]},{"id" : "7077985","name" : "左衛門 ","name_kana" : "サエモン","latitude" : 36.536936,"longitude" : 136.647914,"address" : "〒921-8035 石川県金沢市泉が丘2-12-35 ","tel" : "076-218-4077 ","opentime" : " 11:30～22:00(L.O.21:30)","holiday" : "年中無休","search_time" : ["1&3&4&5&6&7,11-30,14-00","3&4&5&6&7&1,18-00,21-00" ],"search_holiday" : { "days" :  "{}" , "month" :  "{}" },"access_line" : "北陸鉄道バス","access_station" : "泉丘高校前","access_walk" : 15,"budget" : 1600,"category_names" : ["回転寿司"]},{"id" : "7193233","name" : "ガマダン ","name_kana" : "ガマダン","latitude" : 36.516914,"longitude" : 136.639986,"address" : "〒921-8152 石川県金沢市高尾3-4-1 ","tel" : "076-298-7800 ","opentime" : "月・水～日・祝日 11:30～19:00(L.O.18:00)","holiday" : "毎週火曜日","search_time" : ["{}" ],"search_holiday" : { "days" :  "{}" , "month" :  "{}" },"access_line" : "北陸鉄道石川線","access_station" : "馬替駅","access_walk" : 22,"budget" : 0,"category_names" : ["創作料理"]},{"id" : "7245246","name" : "旬彩 和樂 ","name_kana" : "シュンサイワラク","latitude" : 36.536289,"longitude" : 136.608369,"address" : "〒921-8803 石川県野々市市押越2-3 ","tel" : "076-248-7776 ","opentime" : " 17:30～23:00(L.O.22:00)","holiday" : "毎週月曜日","search_time" : ["{}" ],"search_holiday" : { "days" :  "{}" , "month" :  "{}" },"access_line" : "JR北陸本線","access_station" : "野々市（北陸本線）駅","access_walk" : 10,"budget" : 0,"category_names" : ["居酒屋"]},{"id" : "7269056","name" : "おかんの味 藤久 ","name_kana" : "オカンノアジフジヒサ","latitude" : 36.524344,"longitude" : 136.609036,"address" : "〒921-8845 石川県野々市市太平寺1-261 ","tel" : "076-248-3738 ","opentime" : " 17:30～23:00(L.O.22:30)","holiday" : "毎週火曜日","search_time" : ["{}" ],"search_holiday" : { "days" :  "{}" , "month" :  "{}" },"access_line" : "ＪＲ北陸本線","access_station" : "野々市駅","access_walk" : 8,"budget" : 2500,"category_names" : ["居酒屋", "おばんざい"]},{"id" : "7322637","name" : "TON80 ","name_kana" : "トンエイティー","latitude" : 36.523467,"longitude" : 136.647400,"address" : "〒921-8151 石川県金沢市窪2-10-2 ","tel" : "076-256-2058 ","opentime" : "火～金 昼の部：11:30～17:00<BR>火～木 夜の部：18:00～翌02:00<BR>金 夜の部：18:00～翌05:00<BR>土 11:30～翌05:00<BR>日 11:30～翌03:00","holiday" : "毎週月曜日","search_time" : ["{}" ],"search_holiday" : { "days" :  "{}" , "month" :  "{}" },"access_line" : "北陸鉄道石川線","access_station" : "野々市工大前駅","access_walk" : 30,"budget" : 0,"category_names" : ["カフェ"]},{"id" : "6545082","name" : "焼肉 たかちゃん ","name_kana" : "ヤキニクタカチャン","latitude" : 36.514778,"longitude" : 136.621428,"address" : "〒921-8148 石川県金沢市額新保1-281-3 ","tel" : "076-298-3226 ","opentime" : " 17:00～22:30(L.O.20:00)","holiday" : "毎週水曜日","search_time" : ["{}" ],"search_holiday" : { "days" :  "{}" , "month" :  "{}" },"access_line" : "北陸鉄道石川線","access_station" : "額住宅前駅","access_walk" : 2,"budget" : 0,"category_names" : ["焼肉"]},{"id" : "r181838","name" : "サイゼリヤ ラパーク金沢店","name_kana" : "サイゼリヤ ラパークカナザワテン","latitude" : 36.547342,"longitude" : 136.635294,"address" : "〒921-8043 石川県金沢市西泉4-11 ラパーク金沢1F","tel" : "076-243-3223 ","opentime" : " 10:00～24:00","holiday" : "無","search_time" : ["3&4&5&6,11-30,14-00","3&4&5&6&7&1,18-00,23-00" ],"search_holiday" : { "days" :  "{}" , "month" :  "{}" },"access_line" : "{}","access_station" : "{}","access_walk" : {},"budget" : 750,"category_names" : ["イタリアン(イタリア料理)", "ファミリーレストラン"]},{"id" : "r178063","name" : "マクドナルド 金沢ラパーク店","name_kana" : "マクドナルド カナザワラパークテン","latitude" : 36.547492,"longitude" : 136.634806,"address" : "〒921-8043 石川県金沢市西泉4-11","tel" : "076-245-8715 ","opentime" : " 10:00～21:00","holiday" : "無","search_time" : ["{}" ],"search_holiday" : { "days" :  "{}" , "month" :  "{}" },"access_line" : "北陸鉄道石川線","access_station" : "西泉駅","access_walk" : 9,"budget" : 500,"category_names" : ["ファーストフード", "ハンバーガー"]},{"id" : "6265055","name" : "海人 ","name_kana" : "カイト","latitude" : 36.537572,"longitude" : 136.608572,"address" : "〒921-8064 石川県金沢市八日市2-815 ","tel" : "076-247-7585 ","opentime" : " 11:30～15:00(L.O.13:30)、18:00～23:00(L.O.22:00)","holiday" : "毎週水曜日 第1火曜日 第3火曜日<BR>※GWを除く","search_time" : ["{}" ],"search_holiday" : { "days" :  "{}" , "month" :  "{}" },"access_line" : "JR北陸本線","access_station" : "野々市（北陸本線）駅","access_walk" : 10,"budget" : 0,"category_names" : ["創作料理"]},{"id" : "7003427","name" : "サロン ド シュークル ","name_kana" : "サロンドシュークル","latitude" : 36.536861,"longitude" : 136.648664,"address" : "〒921-8035 石川県金沢市泉が丘2-11-32 ","tel" : "076-280-0807 ","opentime" : "{}","holiday" : "{}","search_time" : ["1&2&4&5&6&7,18-00,27-00" ],"search_holiday" : { "days" :  "{}" , "month" :  "{}" },"access_line" : "北陸鉄道石川線","access_station" : "野町駅","access_walk" : 24,"budget" : 0,"category_names" : ["ケーキ屋・スイーツ"]},{"id" : "6373580","name" : "そば やまの葉 ","name_kana" : "ソバヤマノハ","latitude" : 36.536850,"longitude" : 136.648697,"address" : "〒921-8035 石川県金沢市泉が丘2-11-32 ドリームA.Y1F","tel" : "076-244-6788 ","opentime" : "月・火・木～日 ランチ：11:00～14:00(L.O.14:00)<BR>月・火・木～日 ディナー：18:00～21:00(L.O.21:00)","holiday" : "毎週水曜日 第2火曜日","search_time" : ["{}" ],"search_holiday" : { "days" :  "{}" , "month" :  "{}" },"access_line" : "ＪＲ北陸本線","access_station" : "金沢駅","access_walk" : 15,"budget" : 2000,"category_names" : ["そば", "居酒屋"]},{"id" : "5322025","name" : "名船 ","name_kana" : "ナフネ","latitude" : 36.513728,"longitude" : 136.628203,"address" : "〒921-8147 石川県金沢市大額2-138 ","tel" : "076-298-1919 ","opentime" : "{}","holiday" : "{}","search_time" : ["{}" ],"search_holiday" : { "days" :  "{}" , "month" :  "{}" },"access_line" : "北陸鉄道石川線","access_station" : "額住宅前駅","access_walk" : 9,"budget" : 0,"category_names" : ["割烹"]},{"id" : "5858839","name" : "モンキーサークル ","name_kana" : "モンキーサークル","latitude" : 36.525750,"longitude" : 136.648956,"address" : "〒921-8175 石川県金沢市山科3-6-10 ","tel" : "076-244-2802 ","opentime" : "{}","holiday" : "{}","search_time" : ["{}" ],"search_holiday" : { "days" :  "{}" , "month" :  "{}" },"access_line" : "{}","access_station" : "{}","access_walk" : {},"budget" : 0,"category_names" : ["喫茶店・軽食"]},{"id" : "5085913","name" : "てん ","name_kana" : "テン","latitude" : 36.528567,"longitude" : 136.649767,"address" : "〒921-8173 石川県金沢市円光寺3-4-9 ","tel" : "076-243-2378 ","opentime" : "{}","holiday" : "{}","search_time" : ["{}" ],"search_holiday" : { "days" :  "{}" , "month" :  "{}" },"access_line" : "{}","access_station" : "{}","access_walk" : {},"budget" : 0,"category_names" : ["お好み焼き"]},{"id" : "6515495","name" : "奈々 ","name_kana" : "ナナ","latitude" : 36.529878,"longitude" : 136.649978,"address" : "〒921-8173 石川県金沢市円光寺3-3-3 ","tel" : "076-244-0308 ","opentime" : "{}","holiday" : "{}","search_time" : ["2&3&4&5&6&7,07-30,22-00" ],"search_holiday" : { "days" :  "12-29,12-30,12-31,01-01,01-02,01-03,01-04" , "month" :  "{}" },"access_line" : "{}","access_station" : "{}","access_walk" : {},"budget" : 0,"category_names" : ["居酒屋"]},{"id" : "6975111","name" : "たこやき太郎 米泉店 ","name_kana" : "タコヤキタロウヨナイズミテン","latitude" : 36.548489,"longitude" : 136.629517,"address" : "〒921-8044 石川県金沢市米泉町8-105 ","tel" : "076-241-8599 ","opentime" : "{}","holiday" : "{}","search_time" : ["2&3&4&5,18-00,25-00" , "6&7,18-00,26-00" ],"search_holiday" : { "days" :  "{}" , "month" :  "{}" },"access_line" : "北陸鉄道石川線","access_station" : "新西金沢駅","access_walk" : 6,"budget" : 0,"category_names" : ["たこ焼き"]},{"id" : "6989861","name" : "茶菓工房 たろう ","name_kana" : "サカコウボウタロウ","latitude" : 36.541458,"longitude" : 136.645897,"address" : "〒921-8036 石川県金沢市弥生2-9-15 ","tel" : "076-213-7233 ","opentime" : "月～日 09:00～18:00","holiday" : "{}","search_time" : ["1&2&3&4&6&7,07-30,18-30"],"search_holiday" : { "days" :  "{}", "month" :  "{}" },"access_line" : "北陸鉄道石川線","access_station" : "野町駅","access_walk" : 16,"budget" : 0,"category_names" : ["甘味処"]},{"id" : "5038688","name" : "ばんばん ","name_kana" : "バンバン","latitude" : 36.535606,"longitude" : 136.649433,"address" : "〒921-8171 石川県金沢市富樫1-7-11 ","tel" : "076-244-5873 ","opentime" : "{}","holiday" : "{}","search_time" : ["3&4&5&6&7,18-00,26-00" ],"search_holiday" : { "days" :  "{}" , "month" :  "3,2" },"access_line" : "北陸鉄道石川線","access_station" : "野町駅","access_walk" : 26,"budget" : 0,"category_names" : ["ステーキ"]},{"id" : "5038709","name" : "冨士野 ","name_kana" : "フジノ","latitude" : 36.541400,"longitude" : 136.646019,"address" : "〒921-8036 石川県金沢市弥生2-9-14 ","tel" : "076-280-5680 ","opentime" : "{}","holiday" : "{}","search_time" : ["2&3&4&5&6&7,18-00,25-00" ],"search_holiday" : { "days" :  "{}" , "month" :  "{}" },"access_line" : "北陸鉄道石川線","access_station" : "野町駅","access_walk" : 17,"budget" : 0,"category_names" : ["割烹"]},{"id" : "5814468","name" : "おでん茶屋 えみ ","name_kana" : "オデンヂャヤエミ","latitude" : 36.548569,"longitude" : 136.628661,"address" : "〒921-8044 石川県金沢市米泉町8-98 ","tel" : "076-244-7199 ","opentime" : "{}","holiday" : "{}","search_time" : ["{}" ],"search_holiday" : { "days" :  "{}" , "month" :  "{}" },"access_line" : "JR北陸本線","access_station" : "西金沢駅","access_walk" : 6,"budget" : 0,"category_names" : ["おでん"]},{"id" : "r700400","name" : "ふくふくパンチャンの家 ","name_kana" : "フクフクパンチャンノイエ","latitude" : 36.526844,"longitude" : 136.649664,"address" : "〒921-8175 石川県金沢市山科3-4-1","tel" : "050-3467-3713 ","opentime" : "火～日・祝前日・祝日 ランチ：11:30～15:00(L.O.14:30)<BR>火～日・祝前日・祝日 ディナー：17:00～23:00(L.O.22:30)","holiday" : "毎週月曜日","search_time" : ["{}" ],"search_holiday" : { "days" :  "{}" , "month" :  "{}" },"access_line" : "北陸鉄道石川線","access_station" : "野々市工大前駅","access_walk" : 30,"budget" : 3000,"category_names" : ["サムギョプサル", "焼肉"]},{"id" : "r625500","name" : "焼肉 ひろすけ ","name_kana" : "ヤキニクヒロスケ","latitude" : 36.541406,"longitude" : 136.646133,"address" : "〒921-8036 石川県金沢市弥生2-9-14 グリーンパレス弥生1F","tel" : "050-3467-2420 ","opentime" : "月・火・木・金 17:30～23:00(L.O.22:30)<BR>土・日 17:00～23:00(L.O.22:30)","holiday" : "毎週水曜日","search_time" : ["2&3&4&5&6&7,11-00,14-00", "2&3&4&5&6&7,17-00,25-00" ],"search_holiday" : { "days" :  "{}" , "month" :  "{}" },"access_line" : "北陸鉄道石川線","access_station" : "野町駅","access_walk" : 5,"budget" : 3500,"category_names" : ["焼肉", "ホルモン"]},{"id" : "6720855","name" : "食工房 蒼海 ","name_kana" : "ショクコウボウソウカイ","latitude" : 36.524742,"longitude" : 136.648914,"address" : "〒921-8151 石川県金沢市窪2-551 ","tel" : "076-280-2265 ","opentime" : "{}","holiday" : "{}","search_time" : ["1&2&3&5&6&7,11-30,14-00", "1&2&3&5&6&7,17-30,22-00" ],"search_holiday" : { "days" :  "{}" , "month" :  "{}" },"access_line" : "{}","access_station" : "{}","access_walk" : {},"budget" : 0,"category_names" : ["居酒屋"]},{"id" : "7272818","name" : "リストランテ ラヴィータ ","name_kana" : "リストランテラヴィータ","latitude" : 36.536833,"longitude" : 136.649186,"address" : "〒921-8035 石川県金沢市泉が丘2-6-32 ","tel" : "076-280-0802 ","opentime" : " 11:30～14:00(L.O.14:00)、18:00～21:00(L.O.21:00)","holiday" : "{}","search_time" : ["2&3&4&5&6&7,17-00,25-00" ],"search_holiday" : { "days" :  "{}" , "month" :  "0,japanese_holiday" },"access_line" : "ＪＲ北陸本線","access_station" : "金沢駅","access_walk" : 15,"budget" : 7500,"category_names" : ["イタリアン(イタリア料理)", "パスタ"]},{"id" : "6118688","name" : "ロンシャン ","name_kana" : "ロンシャン","latitude" : 36.542519,"longitude" : 136.645131,"address" : "〒921-8036 石川県金沢市弥生2-7-28 ","tel" : "076-243-3011 ","opentime" : "月・木～日 10:00～19:30","holiday" : "毎週火・水曜日<BR>※火曜日水曜日不定休","search_time" : ["{}" ],"search_holiday" : { "days" :  "{}" , "month" :  "{}" },"access_line" : "北陸鉄道石川線","access_station" : "野町駅","access_walk" : 14,"budget" : 0,"category_names" : ["ケーキ屋・スイーツ"]},{"id" : "7377834","name" : "食楽酒場 しんご。 ","name_kana" : "ショクラクサカバシンゴ","latitude" : 36.530942,"longitude" : 136.606444,"address" : "〒921-8805 石川県野々市市稲荷2-138 ","tel" : "076-246-1187 ","opentime" : "{}","holiday" : "{}","search_time" : ["{}" ],"search_holiday" : { "days" :  "{}" , "month" :  "{}" },"access_line" : "JR北陸本線","access_station" : "野々市（北陸本線）駅","access_walk" : 14,"budget" : 0,"category_names" : ["居酒屋"]},{"id" : "5372197","name" : "蛇之目寿司 西金沢店 ","name_kana" : "ジャノメズシニシカナザワテン","latitude" : 36.548683,"longitude" : 136.627000,"address" : "〒921-8044 石川県金沢市米泉町7-72-20 ","tel" : "076-242-4197 ","opentime" : "{}","holiday" : "{}","search_time" : ["1&2&3&4&5&6&7,11-00,24-00" ],"search_holiday" : { "days" :  "{}" , "month" :  "{}" },"access_line" : "JR北陸本線","access_station" : "西金沢駅","access_walk" : 4,"budget" : 0,"category_names" : ["寿司"]},{"id" : "7145063","name" : "みことびじん ","name_kana" : "ミコトビジン","latitude" : 36.548361,"longitude" : 136.632933,"address" : "〒921-8043 石川県金沢市西泉4-27-1 ","tel" : "076-287-3748 ","opentime" : "月～土 カフェ：10:30～18:30","holiday" : "毎週日曜日","search_time" : ["{}" ],"search_holiday" : { "days" :  "{}" , "month" :  "{}" },"access_line" : "北陸鉄道石川線","access_station" : "西泉駅","access_walk" : 7,"budget" : 0,"category_names" : ["カフェ"]},{"id" : "6165324","name" : "ノルマン洋菓子店＆喫茶 ","name_kana" : "ノルマンヨウガシテンアンドキッサ","latitude" : 36.548683,"longitude" : 136.626647,"address" : "〒921-8044 石川県金沢市米泉町7-72-17 ","tel" : "076-247-2788 ","opentime" : " カフェ：11:00～18:00","holiday" : "毎週月・日曜日 祝日","search_time" : ["{}" ],"search_holiday" : { "days" :  "{}" , "month" :  "{}" },"access_line" : "JR北陸本線","access_station" : "西金沢駅","access_walk" : 3,"budget" : 1300,"category_names" : ["ケーキ屋・スイーツ", "カフェ・スイーツ その他"]},{"id" : "5219458","name" : "かっぺ ","name_kana" : "カッペ","latitude" : 36.548706,"longitude" : 136.626872,"address" : "〒921-8044 石川県金沢市米泉町7-72-3 ","tel" : "076-242-6343 ","opentime" : "{}","holiday" : "{}","search_time" : ["{}" ],"search_holiday" : { "days" :  "{}" , "month" :  "{}" },"access_line" : "JR北陸本線","access_station" : "西金沢駅","access_walk" : 4,"budget" : 0,"category_names" : ["焼肉"]},{"id" : "7150522","name" : "おうちごはん K36 ","name_kana" : "オウチゴハンコザル","latitude" : 36.520272,"longitude" : 136.610886,"address" : "〒921-8825 石川県野々市市三納3-3 ","tel" : "076-294-0036 ","opentime" : "{}","holiday" : "{}","search_time" : ["1&2&3&5&6&7,11-00,22-00" ],"search_holiday" : { "days" :  "{}" , "month" :  "{}" },"access_line" : "北陸鉄道石川線","access_station" : "馬替駅","access_walk" : 17,"budget" : 0,"category_names" : ["定食・食事処"]},{"id" : "5858841","name" : "耶馬渓 ","name_kana" : "ヤバケイ","latitude" : 36.538864,"longitude" : 136.608614,"address" : "〒921-8064 石川県金沢市八日市2-178-2 ","tel" : "076-243-9047 ","opentime" : "{}","holiday" : "{}","search_time" : ["1&2&3&4&5&6&7,18-00,25-00" ],"search_holiday" : { "days" :  "{}" , "month" :  "{}" },"access_line" : "ＪＲ北陸本線","access_station" : "野々市（北陸本線）駅","access_walk" : 10,"budget" : 0,"category_names" : ["喫茶店・軽食"]},{"id" : "6975143","name" : "たこやき太郎光ケ丘店 ","name_kana" : "タコヤキタロウヒカリガオカテン","latitude" : 36.513283,"longitude" : 136.628478,"address" : "〒921-8147 石川県金沢市大額2-55 ","tel" : "076-296-0728 ","opentime" : "{}","holiday" : "{}","search_time" : ["{}" ],"search_holiday" : { "days" :  "{}" , "month" :  "{}" },"access_line" : "北陸鉄道石川線","access_station" : "額住宅前駅","access_walk" : 10,"budget" : 0,"category_names" : ["たこ焼き"]},{"id" : "6454970","name" : "カレーハウスCook ","name_kana" : "カレーハウスクック","latitude" : 36.519950,"longitude" : 136.611172,"address" : "〒921-8825 石川県野々市市三納2-177 ","tel" : "076-294-0260 ","opentime" : "{}","holiday" : "{}","search_time" : ["{}" ],"search_holiday" : { "days" :  "{}" , "month" :  "{}" },"access_line" : "北陸鉄道石川線","access_station" : "馬替駅","access_walk" : 16,"budget" : 0,"category_names" : ["カレーライス"]},{"id" : "7322629","name" : "大阪王将 野々市店 ","name_kana" : "オオサカオウショウノノイチテン","latitude" : 36.518844,"longitude" : 136.612328,"address" : "〒921-8825 石川県野々市市三納2-104 ","tel" : "076-248-0304 ","opentime" : "月～日 11:00～23:00","holiday" : "{}","search_time" : ["{}" ],"search_holiday" : { "days" :  "{}" , "month" :  "{}" },"access_line" : "北陸鉄道石川線","access_station" : "額住宅前駅","access_walk" : 16,"budget" : 0,"category_names" : ["中華料理"]},{"id" : "5309562","name" : "しら菊 ","name_kana" : "シラギク","latitude" : 36.529500,"longitude" : 136.650533,"address" : "〒921-8173 石川県金沢市円光寺2-6-10 ","tel" : "076-241-7817 ","opentime" : "{}","holiday" : "{}","search_time" : ["1&2&3&4&6&7,17-00,25-00" ],"search_holiday" : { "days" :  "{}" , "month" :  "{}" },"access_line" : "{}","access_station" : "{}","access_walk" : {},"budget" : 0,"category_names" : ["おでん"]},{"id" : "5038633","name" : "ちろりん村 食事処 ","name_kana" : "チロリンムラショクジドコロ","latitude" : 36.529300,"longitude" : 136.650514,"address" : "〒921-8173 石川県金沢市円光寺2-7-3 ","tel" : "076-245-3005 ","opentime" : " 11:30～14:00、17:00～22:00","holiday" : "毎週日曜日 祝日","search_time" : ["{}" ],"search_holiday" : { "days" :  "{}" , "month" :  "{}" },"access_line" : "{}","access_station" : "{}","access_walk" : {},"budget" : 0,"category_names" : ["定食・食事処"]},{"id" : "6291204","name" : "はら村 ","name_kana" : "ハラムラ","latitude" : 36.542728,"longitude" : 136.645186,"address" : "〒921-8036 石川県金沢市弥生2-6-12 ","tel" : "076-241-9109 ","opentime" : "{}","holiday" : "{}","search_time" : ["{}" ],"search_holiday" : { "days" :  "{}" , "month" :  "{}" },"access_line" : "北陸鉄道石川線","access_station" : "野町駅","access_walk" : 14,"budget" : 0,"category_names" : ["焼き鳥"]},{"id" : "r730018","name" : "COCO’S 泉ヶ丘店","name_kana" : "ココス イズミガオカテン","latitude" : 36.531983,"longitude" : 136.650661,"address" : "〒921-8116 石川県金沢市泉野出町4-2-16","tel" : "076-245-8372 ","opentime" : " 11:00～23:00","holiday" : "無","search_time" : ["1&2&3&5&6&7,17-30,25-00" ],"search_holiday" : { "days" :  "01-01,01-13" , "month" :  "{}" },"access_line" : "北陸鉄道石川線","access_station" : "野町駅","access_walk" : 9,"budget" : 890,"category_names" : ["ファミリーレストラン"]},{"id" : "6307866","name" : "ふらんどーる ","name_kana" : "フランドール","latitude" : 36.526558,"longitude" : 136.650056,"address" : "〒921-8175 石川県金沢市山科1-3-17 ","tel" : "076-243-5700 ","opentime" : "{}","holiday" : "{}","search_time" : ["{}" ],"search_holiday" : { "days" :  "{}" , "month" :  "{}" },"access_line" : "{}","access_station" : "{}","access_walk" : {},"budget" : 0,"category_names" : ["ケーキ屋・スイーツ"]},{"id" : "5038539","name" : "ごはん家 ","name_kana" : "ゴハンヤ","latitude" : 36.548958,"longitude" : 136.627289,"address" : "〒921-8044 石川県金沢市米泉町8-21 ","tel" : "076-226-0668 ","opentime" : "{}","holiday" : "{}","search_time" : ["3&4&5&6,18-00,24-00","1&7,17-00,24-00" ],"search_holiday" : { "days" :  "{}" , "month" :  "{}" },"access_line" : "北陸鉄道石川線","access_station" : "新西金沢駅","access_walk" : 4,"budget" : 0,"category_names" : ["定食・食事処"]},{"id" : "5477771","name" : "やきとり大吉 西金沢店 ","name_kana" : "ヤキトリダイキチニシカナザワテン","latitude" : 36.548942,"longitude" : 136.626928,"address" : "〒921-8044 石川県金沢市米泉町7-73-12 ","tel" : "076-244-4870 ","opentime" : " (17:00～)","holiday" : "毎週火曜日","search_time" : ["{}" ],"search_holiday" : { "days" :  "{}" , "month" :  "{}" },"access_line" : "JR北陸本線","access_station" : "西金沢駅","access_walk" : 4,"budget" : 0,"category_names" : ["焼き鳥"]},{"id" : "5289650","name" : "加登長 西金沢店 ","name_kana" : "カドチョウニシカナザワテン","latitude" : 36.548778,"longitude" : 136.624933,"address" : "〒921-8044 石川県金沢市米泉町7-16 ","tel" : "076-241-2583 ","opentime" : "{}","holiday" : "{}","search_time" : ["{}" ],"search_holiday" : { "days" :  "{}" , "month" :  "{}" },"access_line" : "JR北陸本線","access_station" : "西金沢駅","access_walk" : 2,"budget" : 0,"category_names" : ["そば"]},{"id" : "6515507","name" : "R．5 ","name_kana" : "ルートファイブ","latitude" : 36.548736,"longitude" : 136.624583,"address" : "〒921-8054 石川県金沢市西金沢1-24 ","tel" : "076-272-8960 ","opentime" : "{}","holiday" : "{}","search_time" : ["{}" ],"search_holiday" : { "days" :  "{}" , "month" :  "{}" },"access_line" : "JR北陸本線","access_station" : "西金沢駅","access_walk" : 2,"budget" : 0,"category_names" : ["パン屋・サンドイッチ"]},{"id" : "5289902","name" : "お多福 御園店 ","name_kana" : "オタフクミソノテン","latitude" : 36.533606,"longitude" : 136.606286,"address" : "〒921-8805 石川県野々市市稲荷4-147 ","tel" : "076-248-5400 ","opentime" : "{}","holiday" : "{}","search_time" : ["{}" ],"search_holiday" : { "days" :  "{}" , "month" :  "{}" },"access_line" : "ＪＲ北陸本線","access_station" : "野々市（北陸本線）駅","access_walk" : 11,"budget" : 0,"category_names" : ["そば"]},{"id" : "5322042","name" : "東山 ","name_kana" : "ヒガシヤマ","latitude" : 36.547897,"longitude" : 136.636236,"address" : "〒921-8043 石川県金沢市西泉4-3 ","tel" : "076-243-6445 ","opentime" : "{}","holiday" : "{}","search_time" : ["{}" ],"search_holiday" : { "days" :  "{}" , "month" :  "{}" },"access_line" : "北陸鉄道石川線","access_station" : "西泉駅","access_walk" : 4,"budget" : 0,"category_names" : ["懐石料理"]}]}